Name,description,timestamp,begin,end,altitudeMode,tessellate,extrude,visibility,drawOrder,icon,VmId,______,____________,Latitude,Longitude
Gogoro 三重成功門市站(多站),VmId: 002e15b4-b766-40dc-9a0d-1eaf0e545c8d<br>地址: 新北市三重區成功路115號(近成功路/集成路口)<br>營業時間: 24HR<br>目前狀態: 已啟用<br>Latitude: 25.051840<br>Longitude: 121.487640,,,,,"-1","0","-1",,,002e15b4-b766-40dc-9a0d-1eaf0e545c8d,新北市三重區成功路115號(近成功路/集成路口),已啟用,"25.051840","121.487640"
7-ELEVEN 濱海店站,VmId: 002f4908-a033-4678-8e3f-e5038c9f0319<br>地址: 桃園市大園區竹圍里五鄰竹圍街45-3號(近竹圍街/竹圍街44巷路口)<br>營業時間: 24HR<br>目前狀態: 已啟用<br>Latitude: 25.104733<br>Longitude: 121.243208,,,,,"-1","0","-1",,,002f4908-a033-4678-8e3f-e5038c9f0319,桃園市大園區竹圍里五鄰竹圍街45-3號(近竹圍街/竹圍街44巷路口),已啟用,"25.104733","121.243208"
eReady 台中旗艦店站(多站),VmId: 00607f9b-ed34-45e2-8777-7841cfd962f7<br>地址: 台中市北區北屯路22-5號(近北屯路/德化街口)<br>營業時間: 24HR<br>目前狀態: 已啟用<br>Latitude: 24.161347<br>Longitude: 120.692405,,,,,"-1","0","-1",,,00607f9b-ed34-45e2-8777-7841cfd962f7,台中市北區北屯路22-5號(近北屯路/德化街口),已啟用,"24.161347","120.692405"
全聯屏東林森店站,VmId: 006e6ccc-7a51-439e-b275-ca9e30e21320<br>地址: 屏東縣屏東市自由路163號(近自由路/民生路路口)<br>營業時間: 24HR<br>目前狀態: 已啟用<br>Latitude: 22.668561<br>Longitude: 120.494274,,,,,"-1","0","-1",,,006e6ccc-7a51-439e-b275-ca9e30e21320,屏東縣屏東市自由路163號(近自由路/民生路路口),已啟用,"22.668561","120.494274"
全聯小港店北店站(多站),VmId: 00a23773-9a7d-41e1-83cd-4519f18b4919<br>地址: 高雄市小港區店北路159號(近店北路/店鳳街口)<br>營業時間: 24HR<br>目前狀態: 已啟用<br>Latitude: 22.562672<br>Longitude: 120.351212,,,,,"-1","0","-1",,,00a23773-9a7d-41e1-83cd-4519f18b4919,高雄市小港區店北路159號(近店北路/店鳳街口),已啟用,"22.562672","120.351212"
中油台糖成功加油站,VmId: 01062e78-749d-4f7e-90b2-33b3b56c318d<br>地址: 高雄市前鎮區成功二路2-2號(近成功二路/時代大道)<br>營業時間: 24HR<br>目前狀態: 已啟用<br>Latitude: 22.596899<br>Longitude: 120.305109,,,,,"-1","0","-1",,,01062e78-749d-4f7e-90b2-33b3b56c318d,高雄市前鎮區成功二路2-2號(近成功二路/時代大道),已啟用,"22.596899","120.305109"
康是美鳳揚藥局店站(多站),VmId: 0115e8a3-3ee0-4a0e-a162-ffcb76b894d0<br>地址: 高雄市鳳山區文衡路379號(近文衡路/文平街)<br>營業時間: 24HR<br>目前狀態: 已啟用<br>Latitude: 22.640830<br>Longitude: 120.350630,,,,,"-1","0","-1",,,0115e8a3-3ee0-4a0e-a162-ffcb76b894d0,高雄市鳳山區文衡路379號(近文衡路/文平街),已啟用,"22.640830","120.350630"
宜家家居南屯店站,VmId: 011b66f2-c937-41c0-8695-b0c1f7c273ed<br>地址: 台中市南屯區向上路二段168號(近向上路二段/大觀路口)<br>營業時間: 10:00 ~ 22:00<br>目前狀態: 已啟用<br>Latitude: 24.147611<br>Longitude: 120.642856,,,,,"-1","0","-1",,,011b66f2-c937-41c0-8695-b0c1f7c273ed,台中市南屯區向上路二段168號(近向上路二段/大觀路口),已啟用,"24.147611","120.642856"
楓康超市青海店站,VmId: 01255a75-d14e-4af8-8a41-d5c12acafc2b<br>地址: 台中市西屯區青海路二段520號(近青海路/福科二路口)<br>營業時間: 24HR<br>目前狀態: 已啟用<br>Latitude: 24.176111<br>Longitude: 120.636411,,,,,"-1","0","-1",,,01255a75-d14e-4af8-8a41-d5c12acafc2b,台中市西屯區青海路二段520號(近青海路/福科二路口),已啟用,"24.176111","120.636411"
全聯新莊龍安店站,VmId: 012c542e-da03-4207-b979-5fc78cbeb487<br>地址: 新北市新莊區中正路893巷2之1號(近迴龍捷運站3號出口對面)<br>營業時間: 24HR<br>目前狀態: 已啟用<br>Latitude: 25.020932<br>Longitude: 121.413277,,,,,"-1","0","-1",,,012c542e-da03-4207-b979-5fc78cbeb487,新北市新莊區中正路893巷2之1號(近迴龍捷運站3號出口對面),已啟用,"25.020932","121.413277"
中油八德路加油站,VmId: 0145397e-bb57-4cab-9748-d5295c777f96<br>地址: 基隆市七堵區八德路2-15號(近八德櫻花公園)<br>營業時間: 24HR<br>目前狀態: 已啟用<br>Latitude: 25.104102<br>Longitude: 121.723453,,,,,"-1","0","-1",,,0145397e-bb57-4cab-9748-d5295c777f96,基隆市七堵區八德路2-15號(近八德櫻花公園),已啟用,"25.104102","121.723453"
高雄市旗津復興社區站(多站),VmId: 01966bfa-189a-42e8-aba0-c0d0e8c90678<br>地址: 高雄市旗津區旗津三路900巷與復興巷口(近旗津三路900巷/復興巷口)<br>營業時間: 24HR<br>目前狀態: 已啟用<br>Latitude: 22.605473<br>Longitude: 120.272907,,,,,"-1","0","-1",,,01966bfa-189a-42e8-aba0-c0d0e8c90678,高雄市旗津區旗津三路900巷與復興巷口(近旗津三路900巷/復興巷口),已啟用,"22.605473","120.272907"
全聯大園和平店站,VmId: 01f7ff69-facd-455a-9e2d-129dc3fdc628<br>地址: 桃園市大園區和平東路65號(近和平東路與和平二街路口)<br>營業時間: 24HR<br>目前狀態: 已啟用<br>Latitude: 25.061972<br>Longitude: 121.200064,,,,,"-1","0","-1",,,01f7ff69-facd-455a-9e2d-129dc3fdc628,桃園市大園區和平東路65號(近和平東路與和平二街路口),已啟用,"25.061972","121.200064"
車太炫自助洗車竹北嘉興店站,VmId: 01fcef1e-1c2e-4d56-bfdc-697a83ef0f67<br>地址: 新竹縣竹北市嘉興路507號(近嘉興路與十興一街口)<br>營業時間: 06:00 ~ 22:00<br>目前狀態: 已啟用<br>Latitude: 24.823609<br>Longitude: 121.033282,,,,,"-1","0","-1",,,01fcef1e-1c2e-4d56-bfdc-697a83ef0f67,新竹縣竹北市嘉興路507號(近嘉興路與十興一街口),已啟用,"24.823609","121.033282"
佳里國小廣停二停車場站,VmId: 01ffe3a7-dcb6-47fc-86da-45661b59c371<br>地址: 台南市佳里區文化路359號(近文化路/公園路口)<br>營業時間: 24HR<br>目前狀態: 已啟用<br>Latitude: 23.163047<br>Longitude: 120.172299,,,,,"-1","0","-1",,,01ffe3a7-dcb6-47fc-86da-45661b59c371,台南市佳里區文化路359號(近文化路/公園路口),已啟用,"23.163047","120.172299"
中油東大加油站,VmId: 0213d693-69cb-4cad-b089-559f9c81c211<br>地址: 台中市西屯區臺灣大道四段1832號(近大同公司台中分公司)<br>營業時間: 24HR<br>目前狀態: 已啟用<br>Latitude: 24.182703<br>Longitude: 120.601056,,,,,"-1","0","-1",,,0213d693-69cb-4cad-b089-559f9c81c211,台中市西屯區臺灣大道四段1832號(近大同公司台中分公司),已啟用,"24.182703","120.601056"
台亞龍潭交流道加油站,VmId: 0217ecca-1cf4-4a21-a242-4414086c76d5<br>地址: 桃園市龍潭區中正路605號 (近中正路/雙連街交岔口)<br>營業時間: 24HR<br>目前狀態: 已啟用<br>Latitude: 24.855086<br>Longitude: 121.220305,,,,,"-1","0","-1",,,0217ecca-1cf4-4a21-a242-4414086c76d5,桃園市龍潭區中正路605號 (近中正路/雙連街交岔口),已啟用,"24.855086","121.220305"
西歐新竹中華加油站(多站),VmId: 0223bc68-ec01-4762-8070-b70cfce4199d<br>地址: 新竹市東區中華路二段59號(近新竹高工)<br>營業時間: 24HR<br>目前狀態: 已啟用<br>Latitude: 24.808151<br>Longitude: 120.981899,,,,,"-1","0","-1",,,0223bc68-ec01-4762-8070-b70cfce4199d,新竹市東區中華路二段59號(近新竹高工),已啟用,"24.808151","120.981899"
摩斯漢堡格致店站(多站),VmId: 02257059-ab8f-4485-a9bf-ec217883eaea<br>地址: 台北市士林區格致路59號(近格致路/菁山路口)<br>營業時間: 24HR<br>目前狀態: 已啟用<br>Latitude: 25.137979<br>Longitude: 121.546446,,,,,"-1","0","-1",,,02257059-ab8f-4485-a9bf-ec217883eaea,台北市士林區格致路59號(近格致路/菁山路口),已啟用,"25.137979","121.546446"
新北市石碇區公所站,VmId: 023712ab-8c51-4e79-a5e2-bb5a25f5c862<br>地址: 新北市石碇區碇坪路一段37號(近石碇區公所)<br>營業時間: 24HR<br>目前狀態: 已啟用<br>Latitude: 24.991437<br>Longitude: 121.658121,,,,,"-1","0","-1",,,023712ab-8c51-4e79-a5e2-bb5a25f5c862,新北市石碇區碇坪路一段37號(近石碇區公所),已啟用,"24.991437","121.658121"
桃園市楊梅埔心車站後站停車場站,VmId: 02483fed-bad1-43e0-aae9-d11458183882<br>地址: 桃園市楊梅區楊梅市梅獅路一段87巷(近埔心火車站後站)<br>營業時間: 24HR<br>目前狀態: 已啟用<br>Latitude: 24.919665<br>Longitude: 121.182955,,,,,"-1","0","-1",,,02483fed-bad1-43e0-aae9-d11458183882,桃園市楊梅區楊梅市梅獅路一段87巷(近埔心火車站後站),已啟用,"24.919665","121.182955"
全聯屏東南州店站,VmId: 024e44e7-03aa-44bb-bb71-28ce075eff6f<br>地址: 屏東縣南州鄉人和路1-2，1-3號(近南州郵局屏東56支局 )<br>營業時間: 24HR<br>目前狀態: 已啟用<br>Latitude: 22.489626<br>Longitude: 120.511703,,,,,"-1","0","-1",,,024e44e7-03aa-44bb-bb71-28ce075eff6f,屏東縣南州鄉人和路1-2，1-3號(近南州郵局屏東56支局 ),已啟用,"22.489626","120.511703"
全聯南投集集店站,VmId: 025f5213-7e06-4ae5-8e71-eae84579ca37<br>地址: 南投縣集集鎮民生路9-21號(近民生路/民生五街口)<br>營業時間: 24HR<br>目前狀態: 已啟用<br>Latitude: 23.827850<br>Longitude: 120.793720,,,,,"-1","0","-1",,,025f5213-7e06-4ae5-8e71-eae84579ca37,南投縣集集鎮民生路9-21號(近民生路/民生五街口),已啟用,"23.827850","120.793720"
全聯竹山集山店站,VmId: 027d6fad-6ec8-4b85-8d6f-0b2f3dc587cb<br>地址: 南投縣竹山鎮集山路三段227號(近集山路三段/集山路三段301巷)<br>營業時間: 24HR<br>目前狀態: 已啟用<br>Latitude: 23.763265<br>Longitude: 120.700597,,,,,"-1","0","-1",,,027d6fad-6ec8-4b85-8d6f-0b2f3dc587cb,南投縣竹山鎮集山路三段227號(近集山路三段/集山路三段301巷),已啟用,"23.763265","120.700597"
新北市永和國光路站(多站),VmId: 0280eaf8-eb14-4d9e-bcb8-ebd4eb2675a9<br>地址: 新北市永和區國光路27號對面(近新北市立圖書館永和分館)<br>營業時間: 24HR<br>目前狀態: 建置中(其他狀態100)<br>Latitude: 25.008443<br>Longitude: 121.519580,,,,,"-1","0","-1",,,0280eaf8-eb14-4d9e-bcb8-ebd4eb2675a9,新北市永和區國光路27號對面(近新北市立圖書館永和分館),建置中(其他狀態100),"25.008443","121.519580"
Gogoro 蘆洲中原門市店站,VmId: 02a4550c-6abe-43ec-81db-1eae9c6adabc<br>地址: 新北市蘆洲區中原路1號(近中原路/長榮路交叉口)<br>營業時間: 24HR<br>目前狀態: 已啟用<br>Latitude: 25.083592<br>Longitude: 121.461656,,,,,"-1","0","-1",,,02a4550c-6abe-43ec-81db-1eae9c6adabc,新北市蘆洲區中原路1號(近中原路/長榮路交叉口),已啟用,"25.083592","121.461656"
Gogoro 鳳山五甲門市站,VmId: 02aa6b84-40b0-4ac2-adbc-7b75a92ca426<br>地址: 高雄市鳳山區五甲一路112號(近五甲一路/五甲一路104巷)<br>營業時間: 24HR<br>目前狀態: 已啟用<br>Latitude: 22.620788<br>Longitude: 120.356744,,,,,"-1","0","-1",,,02aa6b84-40b0-4ac2-adbc-7b75a92ca426,高雄市鳳山區五甲一路112號(近五甲一路/五甲一路104巷),已啟用,"22.620788","120.356744"
南投縣南投市公所站(多站),VmId: 02b38fdc-eaaa-467f-830a-e28b8bf3c347<br>地址: 南投縣南投市玉井街5號(近大同街/玉井街口)<br>營業時間: 24HR<br>目前狀態: 已啟用<br>Latitude: 23.911492<br>Longitude: 120.686976,,,,,"-1","0","-1",,,02b38fdc-eaaa-467f-830a-e28b8bf3c347,南投縣南投市玉井街5號(近大同街/玉井街口),已啟用,"23.911492","120.686976"
西歐桃園中山加油站,VmId: 03105b4b-2ba7-4bb9-9cb5-802a37533107<br>地址: 桃園市桃園區中山路1536號(近衛生福利部桃園醫院)<br>營業時間: 24HR<br>目前狀態: 已啟用<br>Latitude: 24.975859<br>Longitude: 121.265980,,,,,"-1","0","-1",,,03105b4b-2ba7-4bb9-9cb5-802a37533107,桃園市桃園區中山路1536號(近衛生福利部桃園醫院),已啟用,"24.975859","121.265980"
新北市中和公園站(多站),VmId: 0329769c-c051-42ac-8879-e6b64e54c7c3<br>地址: 新北市中和區安平路194號對面(近安平路/安平路198巷口)<br>營業時間: 24HR<br>目前狀態: 已啟用<br>Latitude: 24.999397<br>Longitude: 121.513233,,,,,"-1","0","-1",,,0329769c-c051-42ac-8879-e6b64e54c7c3,新北市中和區安平路194號對面(近安平路/安平路198巷口),已啟用,"24.999397","121.513233"
全聯台中北屯店站,VmId: 034991b4-1b5d-46d6-b96e-f23d43ca5e8f<br>地址: 台中市北屯區北屯路289-10號(近北屯路/北屯路212巷口)<br>營業時間: 24HR<br>目前狀態: 已啟用<br>Latitude: 24.167673<br>Longitude: 120.695583,,,,,"-1","0","-1",,,034991b4-1b5d-46d6-b96e-f23d43ca5e8f,台中市北屯區北屯路289-10號(近北屯路/北屯路212巷口),已啟用,"24.167673","120.695583"
新北市三峽國小地下停車場站(多站),VmId: 03570d4f-2aa8-49d1-9fa7-bedd0234eaac<br>地址: 新北市三峽區中山路16號(近三峽國小停車場入口處)<br>營業時間: 24HR<br>目前狀態: 已啟用<br>Latitude: 24.934933<br>Longitude: 121.367467,,,,,"-1","0","-1",,,03570d4f-2aa8-49d1-9fa7-bedd0234eaac,新北市三峽區中山路16號(近三峽國小停車場入口處),已啟用,"24.934933","121.367467"
新北市養工處新莊思源路站(多站),VmId: 037bf074-5b5b-4d91-944f-2c3020a9b042<br>地址: 新北市新莊區思源路與昌智路交叉口(近思源路/昌智路交叉口)<br>營業時間: 24HR<br>目前狀態: 已啟用<br>Latitude: 25.056104<br>Longitude: 121.459658,,,,,"-1","0","-1",,,037bf074-5b5b-4d91-944f-2c3020a9b042,新北市新莊區思源路與昌智路交叉口(近思源路/昌智路交叉口),已啟用,"25.056104","121.459658"
臺中市廣停二停車場站(多站),VmId: 03a1266a-6828-465d-9130-3978de240dd1<br>地址: 台中市烏日區三榮二路、三榮路一段(近三榮二路/三榮一路路口)<br>營業時間: 24HR<br>目前狀態: 已啟用<br>Latitude: 24.106058<br>Longitude: 120.608706,,,,,"-1","0","-1",,,03a1266a-6828-465d-9130-3978de240dd1,台中市烏日區三榮二路、三榮路一段(近三榮二路/三榮一路路口),已啟用,"24.106058","120.608706"
新北市六張公園站(多站),VmId: 03aa93cc-93d7-4e52-863f-197e1b8d0d60<br>地址: 新北市三重區六張街78號(近新北市三重六張公共托育中心)<br>營業時間: 24HR<br>目前狀態: 已啟用<br>Latitude: 25.069906<br>Longitude: 121.493912,,,,,"-1","0","-1",,,03aa93cc-93d7-4e52-863f-197e1b8d0d60,新北市三重區六張街78號(近新北市三重六張公共托育中心),已啟用,"25.069906","121.493912"
中油蘇澳加油站(多站),VmId: 03b4a5ef-89e6-4e87-b61b-6ca6c2dfd86e<br>地址: 宜蘭縣蘇澳鎮中山路一段196號(近中山路一段/中原路口)<br>營業時間: 24HR<br>目前狀態: 已啟用<br>Latitude: 24.596170<br>Longitude: 121.847155,,,,,"-1","0","-1",,,03b4a5ef-89e6-4e87-b61b-6ca6c2dfd86e,宜蘭縣蘇澳鎮中山路一段196號(近中山路一段/中原路口),已啟用,"24.596170","121.847155"
全家沙鹿正英店站(多站),VmId: 03d98f8a-6931-4a54-bffa-c0c55a2ff107<br>地址: 台中市沙鹿區正英路399號(近正英路/北勢東路口)<br>營業時間: 24HR<br>目前狀態: 已啟用<br>Latitude: 24.209820<br>Longitude: 120.580386,,,,,"-1","0","-1",,,03d98f8a-6931-4a54-bffa-c0c55a2ff107,台中市沙鹿區正英路399號(近正英路/北勢東路口),已啟用,"24.209820","120.580386"
中油八里加油站,VmId: 0406ef96-5e86-4857-bf98-b5f2fa4a3862<br>地址: 新北市八里區中山路一段1號(近中山路一段/中華路一段口)<br>營業時間: 24HR<br>目前狀態: 已啟用<br>Latitude: 25.158857<br>Longitude: 121.422970,,,,,"-1","0","-1",,,0406ef96-5e86-4857-bf98-b5f2fa4a3862,新北市八里區中山路一段1號(近中山路一段/中華路一段口),已啟用,"25.158857","121.422970"
全聯平鎮環南店站,VmId: 0413d153-4be1-485c-8e8e-ddcffa980caf<br>地址: 桃園市平鎮區環南路三段69號(近環南路三段/德育路二段交岔口)<br>營業時間: 24HR<br>目前狀態: 已啟用<br>Latitude: 24.940482<br>Longitude: 121.218551,,,,,"-1","0","-1",,,0413d153-4be1-485c-8e8e-ddcffa980caf,桃園市平鎮區環南路三段69號(近環南路三段/德育路二段交岔口),已啟用,"24.940482","121.218551"
7-ELEVEN 聖華店站,VmId: 041c8d31-700d-45aa-9045-9655e3e951dd<br>地址: 新竹市北區西濱路一段399號(近西濱路一段與興濱路口)<br>營業時間: 24HR<br>目前狀態: 已啟用<br>Latitude: 24.841120<br>Longitude: 120.932360,,,,,"-1","0","-1",,,041c8d31-700d-45aa-9045-9655e3e951dd,新竹市北區西濱路一段399號(近西濱路一段與興濱路口),已啟用,"24.841120","120.932360"
日月亭廣明二站(多站),VmId: 0423bb0b-8800-4e94-afb8-31b4d5aa153e<br>地址: 桃園市中壢區廣明路158號旁停車場(近廣明路/廣明路122巷口)<br>營業時間: 24HR<br>目前狀態: 已啟用<br>Latitude: 24.955080<br>Longitude: 121.214260,,,,,"-1","0","-1",,,0423bb0b-8800-4e94-afb8-31b4d5aa153e,桃園市中壢區廣明路158號旁停車場(近廣明路/廣明路122巷口),已啟用,"24.955080","121.214260"
全聯白河國泰店站,VmId: 0442b9c7-308e-4137-bca8-73515232aadd<br>地址: 台南市白河區國泰路127號(近國泰路/民安路路口)<br>營業時間: 24HR<br>目前狀態: 已啟用<br>Latitude: 23.348053<br>Longitude: 120.412931,,,,,"-1","0","-1",,,0442b9c7-308e-4137-bca8-73515232aadd,台南市白河區國泰路127號(近國泰路/民安路路口),已啟用,"23.348053","120.412931"
eReady 新莊思源店站(多站),VmId: 0445e53d-acce-45ea-810a-c9ab9475fb6a<br>地址: 新北市新莊區思源路245號(近思源路/思源路241巷口)<br>營業時間: 24HR<br>目前狀態: 已啟用<br>Latitude: 25.047207<br>Longitude: 121.459666,,,,,"-1","0","-1",,,0445e53d-acce-45ea-810a-c9ab9475fb6a,新北市新莊區思源路245號(近思源路/思源路241巷口),已啟用,"25.047207","121.459666"
全聯新竹武陵店站,VmId: 04764925-72ba-487a-9e7b-936a8a37bf6e<br>地址: 新竹市北區武陵路157-1號(近武陵路/湳中街口)<br>營業時間: 24HR<br>目前狀態: 已啟用<br>Latitude: 24.820544<br>Longitude: 120.967768,,,,,"-1","0","-1",,,04764925-72ba-487a-9e7b-936a8a37bf6e,新竹市北區武陵路157-1號(近武陵路/湳中街口),已啟用,"24.820544","120.967768"
Gogoro 蘆洲三民服務中心站,VmId: 0484b938-a72f-44d2-b8cf-03500189b139<br>地址: 新北市蘆洲區三民路140號(近國立空中大學)<br>營業時間: 24HR<br>目前狀態: 已啟用<br>Latitude: 25.087825<br>Longitude: 121.470657,,,,,"-1","0","-1",,,0484b938-a72f-44d2-b8cf-03500189b139,新北市蘆洲區三民路140號(近國立空中大學),已啟用,"25.087825","121.470657"
Gogoro 台中公益門市站,VmId: 0498c271-fdb7-4f9f-8ccd-0a3e67e2a5ff<br>地址: 台中市西區公益路201號(近公益路/中美街口)<br>營業時間: 24HR<br>目前狀態: 已啟用<br>Latitude: 24.150771<br>Longitude: 120.660591,,,,,"-1","0","-1",,,0498c271-fdb7-4f9f-8ccd-0a3e67e2a5ff,台中市西區公益路201號(近公益路/中美街口),已啟用,"24.150771","120.660591"
新北市四維公園地下停車場站,VmId: 04c0b589-4c4d-4d6e-8f2c-5b1eb1046c4c<br>地址: 新北市板橋區四維路177巷3弄11號對面(近四維公園)<br>營業時間: 24HR<br>目前狀態: 已啟用<br>Latitude: 25.025689<br>Longitude: 121.463922,,,,,"-1","0","-1",,,04c0b589-4c4d-4d6e-8f2c-5b1eb1046c4c,新北市板橋區四維路177巷3弄11號對面(近四維公園),已啟用,"25.025689","121.463922"
台電楓港服務所站,VmId: 04cb6bbd-8699-4472-bfad-c210f5943317<br>地址: 屏東縣枋山鄉德隆12號(近楓港國小)<br>營業時間: 24HR<br>目前狀態: 已啟用<br>Latitude: 22.190412<br>Longitude: 120.691541,,,,,"-1","0","-1",,,04cb6bbd-8699-4472-bfad-c210f5943317,屏東縣枋山鄉德隆12號(近楓港國小),已啟用,"22.190412","120.691541"
臺鐵竹中車站(多站),VmId: 04def847-0fb6-4879-9966-cbc7174363d9<br>地址: 新竹縣竹東鎮竹中路145號(近竹中火車站停車場)<br>營業時間: 24HR<br>目前狀態: 已啟用<br>Latitude: 24.781093<br>Longitude: 121.031859,,,,,"-1","0","-1",,,04def847-0fb6-4879-9966-cbc7174363d9,新竹縣竹東鎮竹中路145號(近竹中火車站停車場),已啟用,"24.781093","121.031859"
中油荒野加油站,VmId: 04f9a0a1-2179-46e0-b740-6da67dc5f153<br>地址: 台東縣太麻里鄉美和村美和路2之2號(近台9線/花東海岸公路口)<br>營業時間: 24HR<br>目前狀態: 已啟用<br>Latitude: 22.691188<br>Longitude: 121.046966,,,,,"-1","0","-1",,,04f9a0a1-2179-46e0-b740-6da67dc5f153,台東縣太麻里鄉美和村美和路2之2號(近台9線/花東海岸公路口),已啟用,"22.691188","121.046966"
新北市福營休閒廣場站(多站),VmId: 0504b14f-570a-431a-9e37-0ca13adc8d1b<br>地址: 新北市新莊區富國路176巷(近鴻金寶麻吉影城)<br>營業時間: 24HR<br>目前狀態: 已啟用<br>Latitude: 25.023881<br>Longitude: 121.424266,,,,,"-1","0","-1",,,0504b14f-570a-431a-9e37-0ca13adc8d1b,新北市新莊區富國路176巷(近鴻金寶麻吉影城),已啟用,"25.023881","121.424266"
中油興化加油站,VmId: 052cd8ca-efc8-4b21-8d00-09402845b930<br>地址: 新北市新莊區復興路三段117號(近復興路三段/化成路口)<br>營業時間: 24HR<br>目前狀態: 已啟用<br>Latitude: 25.044648<br>Longitude: 121.464616,,,,,"-1","0","-1",,,052cd8ca-efc8-4b21-8d00-09402845b930,新北市新莊區復興路三段117號(近復興路三段/化成路口),已啟用,"25.044648","121.464616"
中油大城加油站,VmId: 054fe091-06c4-4602-bb21-ba1c712272cb<br>地址: 彰化縣大城鄉魚寮路50號(近大城鄉玄天宮)<br>營業時間: 24HR<br>目前狀態: 已啟用<br>Latitude: 23.863910<br>Longitude: 120.329561,,,,,"-1","0","-1",,,054fe091-06c4-4602-bb21-ba1c712272cb,彰化縣大城鄉魚寮路50號(近大城鄉玄天宮),已啟用,"23.863910","120.329561"
HiLife 三民鼎金店站,VmId: 0550abf9-0ec4-45f9-975c-87d2f3e19e6b<br>地址: 高雄市三民區鼎中路139號(近鼎中路/金山路口)<br>營業時間: 24HR<br>目前狀態: 已啟用<br>Latitude: 22.661849<br>Longitude: 120.319036,,,,,"-1","0","-1",,,0550abf9-0ec4-45f9-975c-87d2f3e19e6b,高雄市三民區鼎中路139號(近鼎中路/金山路口),已啟用,"22.661849","120.319036"
Gogoro 中和員山門市站(多站),VmId: 056274ae-4afc-49b0-9194-c9cab8e33e58<br>地址: 新北市中和區員山路316號(近員山路/員山路314巷口)<br>營業時間: 24HR<br>目前狀態: 已啟用<br>Latitude: 25.003016<br>Longitude: 121.481292,,,,,"-1","0","-1",,,056274ae-4afc-49b0-9194-c9cab8e33e58,新北市中和區員山路316號(近員山路/員山路314巷口),已啟用,"25.003016","121.481292"
新竹士林市場站,VmId: 057aa3a5-99f1-4e7a-95fb-ec0b7d788154<br>地址: 新竹市北區士林里東大路二段477號(近東大路二段與境福街口)<br>營業時間: 24HR<br>目前狀態: 已啟用<br>Latitude: 24.820870<br>Longitude: 120.960160,,,,,"-1","0","-1",,,057aa3a5-99f1-4e7a-95fb-ec0b7d788154,新竹市北區士林里東大路二段477號(近東大路二段與境福街口),已啟用,"24.820870","120.960160"
HiLife 中壢桃合店站,VmId: 059fe8ef-e907-417b-bb46-773bdd6868bf<br>地址: 桃園市中壢區合圳北路二段47號(近合圳北路二段/內定八街交叉口)<br>營業時間: 24HR<br>目前狀態: 已啟用<br>Latitude: 24.997162<br>Longitude: 121.244508,,,,,"-1","0","-1",,,059fe8ef-e907-417b-bb46-773bdd6868bf,桃園市中壢區合圳北路二段47號(近合圳北路二段/內定八街交叉口),已啟用,"24.997162","121.244508"
淡江大學五虎崗停車場站(多站),VmId: 05a8fa92-bcd5-4c4d-82b9-b84ccc74e260<br>地址: 新北市淡水區英專路151號(五虎崗機車停車場出口處)<br>營業時間: 24HR<br>目前狀態: 已啟用<br>Latitude: 25.175233<br>Longitude: 121.453163,,,,,"-1","0","-1",,,05a8fa92-bcd5-4c4d-82b9-b84ccc74e260,新北市淡水區英專路151號(五虎崗機車停車場出口處),已啟用,"25.175233","121.453163"
臺北市金湖路站(多站),VmId: 05af4968-c9e1-4140-be32-844f62fd2d70<br>地址: 臺北市內湖區金湖路239號旁(近金湖路/康寧路二段口)<br>營業時間: 24HR<br>目前狀態: 建置中(其他狀態100)<br>Latitude: 25.075870<br>Longitude: 121.601083,,,,,"-1","0","-1",,,05af4968-c9e1-4140-be32-844f62fd2d70,臺北市內湖區金湖路239號旁(近金湖路/康寧路二段口),建置中(其他狀態100),"25.075870","121.601083"
華泰電子EMS站(多站),VmId: 05b3074f-2b57-4293-b715-382c21f494ab<br>地址: 高雄市楠梓區東三街16號(近東三街/經二路)<br>營業時間: 24HR<br>目前狀態: 已啟用<br>Latitude: 22.721327<br>Longitude: 120.307546,,,,,"-1","0","-1",,,05b3074f-2b57-4293-b715-382c21f494ab,高雄市楠梓區東三街16號(近東三街/經二路),已啟用,"22.721327","120.307546"
全聯永康大橋店站,VmId: 05b5e3ce-f21c-4e02-abea-39a36320f18b<br>地址: 台南市永康區大橋二街218號(近大橋二街/大橋一街247巷口)<br>營業時間: 24HR<br>目前狀態: 已啟用<br>Latitude: 23.021062<br>Longitude: 120.230886,,,,,"-1","0","-1",,,05b5e3ce-f21c-4e02-abea-39a36320f18b,台南市永康區大橋二街218號(近大橋二街/大橋一街247巷口),已啟用,"23.021062","120.230886"
中油仁武加油站,VmId: 05b5f6f6-29f7-4add-b322-e7a1245ac230<br>地址: 高雄市仁武區鳳仁路282號(近仁武運動公園)<br>營業時間: 24HR<br>目前狀態: 已啟用<br>Latitude: 22.703342<br>Longitude: 120.344502,,,,,"-1","0","-1",,,05b5f6f6-29f7-4add-b322-e7a1245ac230,高雄市仁武區鳳仁路282號(近仁武運動公園),已啟用,"22.703342","120.344502"
中油美得瑞里加油站,VmId: 05e00c3a-d200-4b96-b322-165865f97435<br>地址: 花蓮縣瑞穗鄉瑞北村中正北路2段30之25號(近中正北路2段/花東縱谷公路口)<br>營業時間: 24HR<br>目前狀態: 已啟用<br>Latitude: 23.515231<br>Longitude: 121.376592,,,,,"-1","0","-1",,,05e00c3a-d200-4b96-b322-165865f97435,花蓮縣瑞穗鄉瑞北村中正北路2段30之25號(近中正北路2段/花東縱谷公路口),已啟用,"23.515231","121.376592"
Gogoro 內湖西湖服務中心站,VmId: 05e7557e-3fbd-452a-b310-e51318f44876<br>地址: 台北市內湖區內湖路一段411巷19弄17號(近麗山國小)<br>營業時間: 24HR<br>目前狀態: 已啟用<br>Latitude: 25.082398<br>Longitude: 121.571880,,,,,"-1","0","-1",,,05e7557e-3fbd-452a-b310-e51318f44876,台北市內湖區內湖路一段411巷19弄17號(近麗山國小),已啟用,"25.082398","121.571880"
7-ELEVEN 宮前店站,VmId: 0617f457-2005-4606-9155-c52ccf9dd397<br>地址: 嘉義縣新港鄉宮前村新民路24鄰252號附1(近新民路/嘉民路口)<br>營業時間: 24HR<br>目前狀態: 已啟用<br>Latitude: 23.555832<br>Longitude: 120.354365,,,,,"-1","0","-1",,,0617f457-2005-4606-9155-c52ccf9dd397,嘉義縣新港鄉宮前村新民路24鄰252號附1(近新民路/嘉民路口),已啟用,"23.555832","120.354365"
中油明維加油站,VmId: 061af15b-f527-4147-8885-2c14a39f81d0<br>地址: 台中市大里區大峰路135號(近大峰路/西湖路口)<br>營業時間: 24HR<br>目前狀態: 已啟用<br>Latitude: 24.077081<br>Longitude: 120.688876,,,,,"-1","0","-1",,,061af15b-f527-4147-8885-2c14a39f81d0,台中市大里區大峰路135號(近大峰路/西湖路口),已啟用,"24.077081","120.688876"
中油鎮江加油站,VmId: 0637768e-8a71-4bee-9cee-85a56994f3c3<br>地址: 桃園市平鎮區南平路二段406號(近萊爾富平鎮平德店)<br>營業時間: 24HR<br>目前狀態: 已啟用<br>Latitude: 24.921711<br>Longitude: 121.194289,,,,,"-1","0","-1",,,0637768e-8a71-4bee-9cee-85a56994f3c3,桃園市平鎮區南平路二段406號(近萊爾富平鎮平德店),已啟用,"24.921711","121.194289"
HiLife 彰縣彰花店站,VmId: 0641f387-20db-4880-8812-7f97bb016a8f<br>地址: 彰化縣花壇鄉中山路一段72號(近中山路一段/中橋街交叉口)<br>營業時間: 24HR<br>目前狀態: 已啟用<br>Latitude: 24.011307<br>Longitude: 120.552303,,,,,"-1","0","-1",,,0641f387-20db-4880-8812-7f97bb016a8f,彰化縣花壇鄉中山路一段72號(近中山路一段/中橋街交叉口),已啟用,"24.011307","120.552303"
Gogoro 花蓮中華門市站,VmId: 06483ea8-1327-414c-a58f-b97a47b82af7<br>地址: 花蓮縣花蓮市中華路266號(近花蓮文化創意產業園區)<br>營業時間: 24HR<br>目前狀態: 已啟用<br>Latitude: 23.975269<br>Longitude: 121.600223,,,,,"-1","0","-1",,,06483ea8-1327-414c-a58f-b97a47b82af7,花蓮縣花蓮市中華路266號(近花蓮文化創意產業園區),已啟用,"23.975269","121.600223"
7-ELEVEN 宏旺店站(多站),VmId: 064cf535-4782-4ea4-8e15-99a002e822a2<br>地址: 南投縣南投市復興路38號(近南投縣政府)<br>營業時間: 24HR<br>目前狀態: 已啟用<br>Latitude: 23.902807<br>Longitude: 120.688565,,,,,"-1","0","-1",,,064cf535-4782-4ea4-8e15-99a002e822a2,南投縣南投市復興路38號(近南投縣政府),已啟用,"23.902807","120.688565"
臺中市中華停車場站(多站),VmId: 06684477-f244-482b-91f2-9f8a67d3c2f5<br>地址: 台中市北區柳川東路四段(中華夜市旁)(近柳川西路/公園路口)<br>營業時間: 24HR<br>目前狀態: 已啟用<br>Latitude: 24.148566<br>Longitude: 120.677917,,,,,"-1","0","-1",,,06684477-f244-482b-91f2-9f8a67d3c2f5,台中市北區柳川東路四段(中華夜市旁)(近柳川西路/公園路口),已啟用,"24.148566","120.677917"
應安168 永吉場停車場站(多站),VmId: 066bb42c-89d5-428a-98a6-84fb86c3e4d6<br>地址: 台北市信義區永吉路120巷83號旁(近永吉路120巷/虎林街120巷口)<br>營業時間: 24HR<br>目前狀態: 已啟用<br>Latitude: 25.042337<br>Longitude: 121.570325,,,,,"-1","0","-1",,,066bb42c-89d5-428a-98a6-84fb86c3e4d6,台北市信義區永吉路120巷83號旁(近永吉路120巷/虎林街120巷口),已啟用,"25.042337","121.570325"
中油茄拔加油站,VmId: 067d0f3e-2dbf-4d1c-bc05-6b2f08109fb4<br>地址: 台南市善化區嘉北里茄拔2-30號(近善化區農會)<br>營業時間: 24HR<br>目前狀態: 已啟用<br>Latitude: 23.144619<br>Longitude: 120.327923,,,,,"-1","0","-1",,,067d0f3e-2dbf-4d1c-bc05-6b2f08109fb4,台南市善化區嘉北里茄拔2-30號(近善化區農會),已啟用,"23.144619","120.327923"
家樂福桂林店站(多站),VmId: 0698aaf6-87ed-4cf2-9d47-ddbd92692d1e<br>地址: 台北市萬華區桂林路1號(近家樂福桂林店)<br>營業時間: 24HR<br>目前狀態: 已啟用<br>Latitude: 25.038158<br>Longitude: 121.505378,,,,,"-1","0","-1",,,0698aaf6-87ed-4cf2-9d47-ddbd92692d1e,台北市萬華區桂林路1號(近家樂福桂林店),已啟用,"25.038158","121.505378"
全家新竹龍山店站,VmId: 06b4c2c1-8743-4cf8-a68c-65a286b5c52d<br>地址: 新竹市東區龍山東路228號1樓(近龍山東路與龍山東一街口)<br>營業時間: 24HR<br>目前狀態: 已啟用<br>Latitude: 24.788816<br>Longitude: 121.012326,,,,,"-1","0","-1",,,06b4c2c1-8743-4cf8-a68c-65a286b5c52d,新竹市東區龍山東路228號1樓(近龍山東路與龍山東一街口),已啟用,"24.788816","121.012326"
中油美濃加油站,VmId: 06e20d0d-5b9f-486b-9019-637af710fb9c<br>地址: 高雄市美濃區成功路133號(近成功路/合和路口)<br>營業時間: 24HR<br>目前狀態: 已啟用<br>Latitude: 22.894087<br>Longitude: 120.546963,,,,,"-1","0","-1",,,06e20d0d-5b9f-486b-9019-637af710fb9c,高雄市美濃區成功路133號(近成功路/合和路口),已啟用,"22.894087","120.546963"
新北市中角灣站,VmId: 070b33a7-5ddc-4245-b584-fda6103f47bd<br>地址: 新北市金山區台2線39公里處(近中角灣國際衝浪基地)<br>營業時間: 24HR<br>目前狀態: 已啟用<br>Latitude: 25.239515<br>Longitude: 121.633296,,,,,"-1","0","-1",,,070b33a7-5ddc-4245-b584-fda6103f47bd,新北市金山區台2線39公里處(近中角灣國際衝浪基地),已啟用,"25.239515","121.633296"
全聯內埔永光店站,VmId: 07270e3c-f18a-4d15-b0c4-4d928d5ceeb3<br>地址: 屏東縣內埔鄉永光路3號(近學人路/永光路口)<br>營業時間: 24HR<br>目前狀態: 已啟用<br>Latitude: 22.608832<br>Longitude: 120.564469,,,,,"-1","0","-1",,,07270e3c-f18a-4d15-b0c4-4d928d5ceeb3,屏東縣內埔鄉永光路3號(近學人路/永光路口),已啟用,"22.608832","120.564469"
HiLife 烏日成中店站,VmId: 0739449d-a6bf-4dad-9761-d36dc59be716<br>地址: 台中市烏日區中山路三段548號(近成功車站)<br>營業時間: 24HR<br>目前狀態: 已啟用<br>Latitude: 24.113818<br>Longitude: 120.590445,,,,,"-1","0","-1",,,0739449d-a6bf-4dad-9761-d36dc59be716,台中市烏日區中山路三段548號(近成功車站),已啟用,"24.113818","120.590445"
全家台南大興店站,VmId: 0743ec4c-57c2-43b6-adab-44dc095f191e<br>地址: 台南市北區大興街398號(近大興街/賢北街口)<br>營業時間: 24HR<br>目前狀態: 已啟用<br>Latitude: 23.009285<br>Longitude: 120.182912,,,,,"-1","0","-1",,,0743ec4c-57c2-43b6-adab-44dc095f191e,台南市北區大興街398號(近大興街/賢北街口),已啟用,"23.009285","120.182912"
全聯彰化彰安店站,VmId: 0791aee6-5cca-48c0-93e5-ec3eb33a477d<br>地址: 彰化縣彰化市中正路二段828號1樓(近彰化縣警察局)<br>營業時間: 24HR<br>目前狀態: 已啟用<br>Latitude: 24.064469<br>Longitude: 120.534445,,,,,"-1","0","-1",,,0791aee6-5cca-48c0-93e5-ec3eb33a477d,彰化縣彰化市中正路二段828號1樓(近彰化縣警察局),已啟用,"24.064469","120.534445"
花蓮國安郵局站(多站),VmId: 0791f905-2a46-497c-958a-2cefc6cdc8d3<br>地址: 花蓮縣花蓮市中山路408號(近中山路/延平路口)<br>營業時間: 24HR<br>目前狀態: 已啟用<br>Latitude: 23.984192<br>Longitude: 121.603961,,,,,"-1","0","-1",,,0791f905-2a46-497c-958a-2cefc6cdc8d3,花蓮縣花蓮市中山路408號(近中山路/延平路口),已啟用,"23.984192","121.603961"
高雄市都發局鼎金後路站(多站),VmId: 079c5e5b-9439-4f68-bca3-9217e9fa019c<br>地址: 高雄市三民區鼎金後路與鼎中路交叉口(近高雄市立獅湖國小)<br>營業時間: 24HR<br>目前狀態: 已啟用<br>Latitude: 22.673114<br>Longitude: 120.321696,,,,,"-1","0","-1",,,079c5e5b-9439-4f68-bca3-9217e9fa019c,高雄市三民區鼎金後路與鼎中路交叉口(近高雄市立獅湖國小),已啟用,"22.673114","120.321696"
中油大林中正路加油站,VmId: 07b7bc37-e1c7-441a-8983-8b2f2b68e3e8<br>地址: 嘉義縣大林鎮中正路801號(近自強路/中正路口)<br>營業時間: 24HR<br>目前狀態: 已啟用<br>Latitude: 23.609991<br>Longitude: 120.461182,,,,,"-1","0","-1",,,07b7bc37-e1c7-441a-8983-8b2f2b68e3e8,嘉義縣大林鎮中正路801號(近自強路/中正路口),已啟用,"23.609991","120.461182"
中油台中中正加油站,VmId: 08118352-9dce-442e-8095-0525dee920b4<br>地址: 台中市梧棲區港埠路二段68號(近港埠路二段/福德街口)<br>營業時間: 24HR<br>目前狀態: 已啟用<br>Latitude: 24.252833<br>Longitude: 120.537737,,,,,"-1","0","-1",,,08118352-9dce-442e-8095-0525dee920b4,台中市梧棲區港埠路二段68號(近港埠路二段/福德街口),已啟用,"24.252833","120.537737"
振興公園地下停車場B1F站(多站),VmId: 08180132-04a6-4a2b-9878-6ade516d3609<br>地址: 台北市北投區天母西路112號(地下一樓機車停車場)(近臺北榮民總醫院)<br>營業時間: 24HR<br>目前狀態: 已啟用<br>Latitude: 25.118785<br>Longitude: 121.523261,,,,,"-1","0","-1",,,08180132-04a6-4a2b-9878-6ade516d3609,台北市北投區天母西路112號(地下一樓機車停車場)(近臺北榮民總醫院),已啟用,"25.118785","121.523261"
中油梅山加油站,VmId: 082d3dd9-0348-45a7-8ae0-073cd9ed649e<br>地址: 嘉義縣梅山鄉梅北村中山路746號(近中山路/三美庄口)<br>營業時間: 24HR<br>目前狀態: 已啟用<br>Latitude: 23.589870<br>Longitude: 120.545367,,,,,"-1","0","-1",,,082d3dd9-0348-45a7-8ae0-073cd9ed649e,嘉義縣梅山鄉梅北村中山路746號(近中山路/三美庄口),已啟用,"23.589870","120.545367"
中油柑園南榮加油站(多站),VmId: 0836ca52-d0c6-4d21-9219-72c5cc97020c<br>地址: 桃園市蘆竹區南山路一段313號(近南山路一段/長榮路口)<br>營業時間: 24HR<br>目前狀態: 已啟用<br>Latitude: 25.057578<br>Longitude: 121.288785,,,,,"-1","0","-1",,,0836ca52-d0c6-4d21-9219-72c5cc97020c,桃園市蘆竹區南山路一段313號(近南山路一段/長榮路口),已啟用,"25.057578","121.288785"
中油大潮州加油站,VmId: 084e3250-8894-43c6-942e-cb45154f1abc<br>地址: 屏東縣竹田鄉大成路33號(近大成路/屏56)<br>營業時間: 24HR<br>目前狀態: 已啟用<br>Latitude: 22.574498<br>Longitude: 120.516407,,,,,"-1","0","-1",,,084e3250-8894-43c6-942e-cb45154f1abc,屏東縣竹田鄉大成路33號(近大成路/屏56),已啟用,"22.574498","120.516407"
西湖公園站(多站),VmId: 085e40e2-3d09-4931-b0a9-dc909312c045<br>地址: 台北市內湖區內湖路一段387巷38號(近內湖路一段387巷/內湖路一段411巷74弄口)<br>營業時間: 24HR<br>目前狀態: 已啟用<br>Latitude: 25.083971<br>Longitude: 121.570610,,,,,"-1","0","-1",,,085e40e2-3d09-4931-b0a9-dc909312c045,台北市內湖區內湖路一段387巷38號(近內湖路一段387巷/內湖路一段411巷74弄口),已啟用,"25.083971","121.570610"
臺北市災害應變中心地下停車場B1F站,VmId: 08663aa4-85c3-42f6-b6ac-437935132f08<br>地址: 台北市信義區莊敬路391巷11弄2號(地下一樓機車停車場)(近臺北市松山地政事務所)<br>營業時間: 24HR<br>目前狀態: 已啟用<br>Latitude: 25.029023<br>Longitude: 121.565942,,,,,"-1","0","-1",,,08663aa4-85c3-42f6-b6ac-437935132f08,台北市信義區莊敬路391巷11弄2號(地下一樓機車停車場)(近臺北市松山地政事務所),已啟用,"25.029023","121.565942"
山隆員林加油站(多站),VmId: 08703451-902f-44df-a63f-db3feb957b53<br>地址: 彰化縣員林市三義里21鄰中山路1段399號(近中山路一段/惠明街口)<br>營業時間: 24HR<br>目前狀態: 已啟用<br>Latitude: 23.951055<br>Longitude: 120.566004,,,,,"-1","0","-1",,,08703451-902f-44df-a63f-db3feb957b53,彰化縣員林市三義里21鄰中山路1段399號(近中山路一段/惠明街口),已啟用,"23.951055","120.566004"
HiLife 鳳山文東店站(多站),VmId: 088d9b11-f6d5-43bf-8837-6fc1e70865d1<br>地址: 高雄市鳳山區文龍東路240號(近鎮北國小)<br>營業時間: 24HR<br>目前狀態: 已啟用<br>Latitude: 22.640711<br>Longitude: 120.368378,,,,,"-1","0","-1",,,088d9b11-f6d5-43bf-8837-6fc1e70865d1,高雄市鳳山區文龍東路240號(近鎮北國小),已啟用,"22.640711","120.368378"
全家沙鹿金斗店站(多站),VmId: 08a591f2-fb05-4e38-af0c-2c30f39fd386<br>地址: 台中市沙鹿區南斗路29號(近南斗路/南斗路27巷口)<br>營業時間: 24HR<br>目前狀態: 已啟用<br>Latitude: 24.216638<br>Longitude: 120.569034,,,,,"-1","0","-1",,,08a591f2-fb05-4e38-af0c-2c30f39fd386,台中市沙鹿區南斗路29號(近南斗路/南斗路27巷口),已啟用,"24.216638","120.569034"
和春技術學院大寮校區站(多站),VmId: 08be4db1-38d7-470d-8b2d-9f5de265c547<br>地址: 高雄市大寮區信義路40號(近信義路/四維路口)<br>營業時間: 24HR<br>目前狀態: 已啟用<br>Latitude: 22.634332<br>Longitude: 120.391586,,,,,"-1","0","-1",,,08be4db1-38d7-470d-8b2d-9f5de265c547,高雄市大寮區信義路40號(近信義路/四維路口),已啟用,"22.634332","120.391586"
楓康超市崇德店站,VmId: 08c37a0a-4b02-4dc5-81ca-41d769a77898<br>地址: 台中市北屯區崇德路三段477號(近崇德路/崇仁街路口)<br>營業時間: 24HR<br>目前狀態: 已啟用<br>Latitude: 24.191275<br>Longitude: 120.686197,,,,,"-1","0","-1",,,08c37a0a-4b02-4dc5-81ca-41d769a77898,台中市北屯區崇德路三段477號(近崇德路/崇仁街路口),已啟用,"24.191275","120.686197"
7-ELEVEN 誠安店站,VmId: 08d04a27-c213-46bc-8001-cab1a6f70049<br>地址: 台北市大安區敦化南路1段247巷12號(近敦化南路一段/安和路一段路口)<br>營業時間: 24HR<br>目前狀態: 已啟用<br>Latitude: 25.038854<br>Longitude: 121.550004,,,,,"-1","0","-1",,,08d04a27-c213-46bc-8001-cab1a6f70049,台北市大安區敦化南路1段247巷12號(近敦化南路一段/安和路一段路口),已啟用,"25.038854","121.550004"
7-ELEVEN 鼎利店站,VmId: 08f916b4-0c06-4f72-82c6-c669a92475f8<br>地址: 台南市關廟區南雄路二段210號(近南雄路二段/成功路交叉口)<br>營業時間: 24HR<br>目前狀態: 已啟用<br>Latitude: 22.964590<br>Longitude: 120.328950,,,,,"-1","0","-1",,,08f916b4-0c06-4f72-82c6-c669a92475f8,台南市關廟區南雄路二段210號(近南雄路二段/成功路交叉口),已啟用,"22.964590","120.328950"
中油大立鴻福加油站,VmId: 092ab2f9-c45b-4c17-b01a-ba6f85046086<br>地址: 金門縣金湖鎮瓊徑路7號(近瓊徑路/精武路口)<br>營業時間: 24HR<br>目前狀態: 已啟用<br>Latitude: 24.443806<br>Longitude: 118.387991,,,,,"-1","0","-1",,,092ab2f9-c45b-4c17-b01a-ba6f85046086,金門縣金湖鎮瓊徑路7號(近瓊徑路/精武路口),已啟用,"24.443806","118.387991"
Gogoro 桃園藝文店站,VmId: 0938536c-88f8-44ef-801a-05e9b62c7873<br>地址: 桃園市桃園區大興西路一段163號(近大興西路一段/同安街口)<br>營業時間: 24HR<br>目前狀態: 已啟用<br>Latitude: 25.014391<br>Longitude: 121.305131,,,,,"-1","0","-1",,,0938536c-88f8-44ef-801a-05e9b62c7873,桃園市桃園區大興西路一段163號(近大興西路一段/同安街口),已啟用,"25.014391","121.305131"
7-ELEVEN 航發店站,VmId: 094c62ab-1c1c-47f5-92b5-2ecc3d7770d8<br>地址: 台中市西屯區河南路二段242號(近河南路二段與逢大路路口)<br>營業時間: 24HR<br>目前狀態: 已啟用<br>Latitude: 24.175841<br>Longitude: 120.650286,,,,,"-1","0","-1",,,094c62ab-1c1c-47f5-92b5-2ecc3d7770d8,台中市西屯區河南路二段242號(近河南路二段與逢大路路口),已啟用,"24.175841","120.650286"
府前廣場地下停車場B1F站,VmId: 0957c52a-b56f-4edb-b31c-78ee7d3acea9<br>地址: 台北市信義區松壽路1號(地下一樓機車停車場)(近松壽路/市府路口)<br>營業時間: 24HR<br>目前狀態: 已啟用<br>Latitude: 25.036104<br>Longitude: 121.563119,,,,,"-1","0","-1",,,0957c52a-b56f-4edb-b31c-78ee7d3acea9,台北市信義區松壽路1號(地下一樓機車停車場)(近松壽路/市府路口),已啟用,"25.036104","121.563119"
中油田中加油站,VmId: 098185ef-7579-42f9-9a71-92569204b004<br>地址: 彰化縣田中鎮員集路一段783號(近員集路一段/興工路口)<br>營業時間: 24HR<br>目前狀態: 已啟用<br>Latitude: 23.849777<br>Longitude: 120.591092,,,,,"-1","0","-1",,,098185ef-7579-42f9-9a71-92569204b004,彰化縣田中鎮員集路一段783號(近員集路一段/興工路口),已啟用,"23.849777","120.591092"
全聯八德大湳店站,VmId: 09956233-a912-4b3a-a905-875e3c2d2099<br>地址: 桃園市八德區福國北街79號(近福國北街/中路街口)<br>營業時間: 24HR<br>目前狀態: 已啟用<br>Latitude: 24.961035<br>Longitude: 121.294780,,,,,"-1","0","-1",,,09956233-a912-4b3a-a905-875e3c2d2099,桃園市八德區福國北街79號(近福國北街/中路街口),已啟用,"24.961035","121.294780"
Gogoro 板橋南雅西服務中心站,VmId: 09bf90dc-c517-4ea4-8c69-398bc2ff0c19<br>地址: 新北市板橋區南雅西路二段247號(近南雅西路二段/大仁街口)<br>營業時間: 24HR<br>目前狀態: 已啟用<br>Latitude: 25.014535<br>Longitude: 121.451628,,,,,"-1","0","-1",,,09bf90dc-c517-4ea4-8c69-398bc2ff0c19,新北市板橋區南雅西路二段247號(近南雅西路二段/大仁街口),已啟用,"25.014535","121.451628"
台北捷運劍南路站(多站),VmId: 09d2a9d7-e031-4e06-857f-3c316b289bd0<br>地址: 台北市中山區敬業二路捷運站2號出口(近捷運站機車轉乘停車場)<br>營業時間: 24HR<br>目前狀態: 已啟用<br>Latitude: 25.084640<br>Longitude: 121.554560,,,,,"-1","0","-1",,,09d2a9d7-e031-4e06-857f-3c316b289bd0,台北市中山區敬業二路捷運站2號出口(近捷運站機車轉乘停車場),已啟用,"25.084640","121.554560"
臺鐵大慶車站(多站),VmId: 09da19af-e0e4-4c78-bd93-86f2b3256a5b<br>地址: 臺中市南區樹德里7鄰大慶街2段130號(近大慶街二段/建國南路口)<br>營業時間: 24HR<br>目前狀態: 已啟用<br>Latitude: 24.118577<br>Longitude: 120.647547,,,,,"-1","0","-1",,,09da19af-e0e4-4c78-bd93-86f2b3256a5b,臺中市南區樹德里7鄰大慶街2段130號(近大慶街二段/建國南路口),已啟用,"24.118577","120.647547"
中油中正三路加油站,VmId: 09e24067-a51e-4225-b6e1-5eee6210a9c1<br>地址: 高雄市新興區中正三路9號(近中正三路與錦田路交叉口)<br>營業時間: 24HR<br>目前狀態: 已啟用<br>Latitude: 22.630478<br>Longitude: 120.310532,,,,,"-1","0","-1",,,09e24067-a51e-4225-b6e1-5eee6210a9c1,高雄市新興區中正三路9號(近中正三路與錦田路交叉口),已啟用,"22.630478","120.310532"
臺中市廣民停車場站(多站),VmId: 09f5a776-a661-4db1-b092-a99a5ed92169<br>地址: 臺中市西區四維街、大明街(近四維街/大明街路口)<br>營業時間: 24HR<br>目前狀態: 已啟用<br>Latitude: 24.139147<br>Longitude: 120.673561,,,,,"-1","0","-1",,,09f5a776-a661-4db1-b092-a99a5ed92169,臺中市西區四維街、大明街(近四維街/大明街路口),已啟用,"24.139147","120.673561"
中油挖仔加油站,VmId: 0a3a8f55-4e50-452d-8045-4055dc5e41af<br>地址: 彰化縣二林鎮二溪路七段552號(近二溪路七段/二溪路七段554巷口)<br>營業時間: 24HR<br>目前狀態: 已啟用<br>Latitude: 23.953250<br>Longitude: 120.435380,,,,,"-1","0","-1",,,0a3a8f55-4e50-452d-8045-4055dc5e41af,彰化縣二林鎮二溪路七段552號(近二溪路七段/二溪路七段554巷口),已啟用,"23.953250","120.435380"
屏東縣大灣路停車場站(多站),VmId: 0a483e36-c7f2-4c67-bd17-8268762d64ba<br>地址: 屏東縣恆春鎮大灣路187號旁(近恆春鎮農會墾丁辦事處)<br>營業時間: 24HR<br>目前狀態: 已啟用<br>Latitude: 21.944979<br>Longitude: 120.796424,,,,,"-1","0","-1",,,0a483e36-c7f2-4c67-bd17-8268762d64ba,屏東縣恆春鎮大灣路187號旁(近恆春鎮農會墾丁辦事處),已啟用,"21.944979","120.796424"
7-ELEVEN 亮亞店站(多站),VmId: 0a7b2f7b-7db1-489b-90a6-2fc56d737244<br>地址: 桃園市蘆竹區大福路189號(近大福路/大新一街交叉口)<br>營業時間: 24HR<br>目前狀態: 已啟用<br>Latitude: 25.020779<br>Longitude: 121.257800,,,,,"-1","0","-1",,,0a7b2f7b-7db1-489b-90a6-2fc56d737244,桃園市蘆竹區大福路189號(近大福路/大新一街交叉口),已啟用,"25.020779","121.257800"
中油申昌加油站,VmId: 0a8a0d31-5928-4209-8a3f-a1e2b2900e4a<br>地址: 苗栗縣通霄鎮白東93-3號<br>營業時間: 24HR<br>目前狀態: 已啟用<br>Latitude: 24.569936<br>Longitude: 120.712752,,,,,"-1","0","-1",,,0a8a0d31-5928-4209-8a3f-a1e2b2900e4a,苗栗縣通霄鎮白東93-3號,已啟用,"24.569936","120.712752"
全家路竹竹東店站,VmId: 0aaa0501-29cc-407d-959f-2d4908ec9461<br>地址: 高雄市路竹區中山路711號(近中山路/自由街190巷)<br>營業時間: 24HR<br>目前狀態: 已啟用<br>Latitude: 22.864854<br>Longitude: 120.257211,,,,,"-1","0","-1",,,0aaa0501-29cc-407d-959f-2d4908ec9461,高雄市路竹區中山路711號(近中山路/自由街190巷),已啟用,"22.864854","120.257211"
全家新竹中華店站,VmId: 0ab074be-20b6-46a7-a94f-67b8aed2571a<br>地址: 新竹市香山區五福路二段776﹑778號(近五福路二段與明德路口)<br>營業時間: 24HR<br>目前狀態: 已啟用<br>Latitude: 24.756943<br>Longitude: 120.952323,,,,,"-1","0","-1",,,0ab074be-20b6-46a7-a94f-67b8aed2571a,新竹市香山區五福路二段776﹑778號(近五福路二段與明德路口),已啟用,"24.756943","120.952323"
山隆林口加油站,VmId: 0abdf662-692d-4e54-9014-0ac31d8a96e8<br>地址: 新北市林口區文化二路二段553號(近中華路/文化二路口)<br>營業時間: 24HR<br>目前狀態: 已啟用<br>Latitude: 25.090349<br>Longitude: 121.383464,,,,,"-1","0","-1",,,0abdf662-692d-4e54-9014-0ac31d8a96e8,新北市林口區文化二路二段553號(近中華路/文化二路口),已啟用,"25.090349","121.383464"
新北市溪美立體停車場站(多站),VmId: 0adcb8a1-b1c0-4ef5-bc36-c1ded4470531<br>地址: 新北市三重區自強路四段55號(近新北市三重戶政事務所溪美辦事處)<br>營業時間: 24HR<br>目前狀態: 已啟用<br>Latitude: 25.078156<br>Longitude: 121.490272,,,,,"-1","0","-1",,,0adcb8a1-b1c0-4ef5-bc36-c1ded4470531,新北市三重區自強路四段55號(近新北市三重戶政事務所溪美辦事處),已啟用,"25.078156","121.490272"
全家新健康店站,VmId: 0aed58f7-f6a4-4294-9c89-a708312eb59c<br>地址: 台北市松山區南京東路四段133巷9弄2號(近南京東路四段133巷/健康路口)<br>營業時間: 24HR<br>目前狀態: 已啟用<br>Latitude: 25.053317<br>Longitude: 121.555217,,,,,"-1","0","-1",,,0aed58f7-f6a4-4294-9c89-a708312eb59c,台北市松山區南京東路四段133巷9弄2號(近南京東路四段133巷/健康路口),已啟用,"25.053317","121.555217"
7-ELEVEN 明道店站,VmId: 0af5ce47-1673-4fc3-bcdc-8fd1a08f33ca<br>地址: 彰化縣溪州鄉中山路四段627號(近彰182線)<br>營業時間: 24HR<br>目前狀態: 已啟用<br>Latitude: 23.869201<br>Longitude: 120.513172,,,,,"-1","0","-1",,,0af5ce47-1673-4fc3-bcdc-8fd1a08f33ca,彰化縣溪州鄉中山路四段627號(近彰182線),已啟用,"23.869201","120.513172"
長榮崇明停車場站,VmId: 0af88859-618e-4d0c-a9a4-a632e59049e0<br>地址: 台南市東區長榮路一段與長榮路一段15巷口(近長榮路一段/長榮路一段15巷口)<br>營業時間: 24HR<br>目前狀態: 已啟用<br>Latitude: 22.982566<br>Longitude: 120.216129,,,,,"-1","0","-1",,,0af88859-618e-4d0c-a9a4-a632e59049e0,台南市東區長榮路一段與長榮路一段15巷口(近長榮路一段/長榮路一段15巷口),已啟用,"22.982566","120.216129"
HiLife 桃縣桃濱店站,VmId: 0afae98c-b0f5-404c-b478-ee78b8135838<br>地址: 桃園市新屋區中山西路三段650號(近中山西路三段/文化路三段交叉口)<br>營業時間: 24HR<br>目前狀態: 已啟用<br>Latitude: 24.989052<br>Longitude: 121.030577,,,,,"-1","0","-1",,,0afae98c-b0f5-404c-b478-ee78b8135838,桃園市新屋區中山西路三段650號(近中山西路三段/文化路三段交叉口),已啟用,"24.989052","121.030577"
中油永錡彭厝加油站,VmId: 0b285a50-e1d9-41d5-9778-2b4dc6fa9aaf<br>地址: 新北市樹林區八德街395號(近環河路/八德街交接口)<br>營業時間: 24HR<br>目前狀態: 已啟用<br>Latitude: 24.971815<br>Longitude: 121.415669,,,,,"-1","0","-1",,,0b285a50-e1d9-41d5-9778-2b4dc6fa9aaf,新北市樹林區八德街395號(近環河路/八德街交接口),已啟用,"24.971815","121.415669"
中油潮州加油站,VmId: 0b2a7bca-3af6-42b4-905d-a1ae36ad9884<br>地址: 屏東縣潮州鎮延平路217號(近中油快保中心)<br>營業時間: 24HR<br>目前狀態: 已啟用<br>Latitude: 22.557001<br>Longitude: 120.540290,,,,,"-1","0","-1",,,0b2a7bca-3af6-42b4-905d-a1ae36ad9884,屏東縣潮州鎮延平路217號(近中油快保中心),已啟用,"22.557001","120.540290"
全家台南三喜店站,VmId: 0b4751ad-8c94-46cc-8bd8-722a1d8c74f6<br>地址: 台南市南區喜樹路220號(近喜樹路/喜明街口)<br>營業時間: 24HR<br>目前狀態: 已啟用<br>Latitude: 22.941226<br>Longitude: 120.178386,,,,,"-1","0","-1",,,0b4751ad-8c94-46cc-8bd8-722a1d8c74f6,台南市南區喜樹路220號(近喜樹路/喜明街口),已啟用,"22.941226","120.178386"
家樂福楠梓店站,VmId: 0b6457a3-1197-4625-9031-0cbe59a73004<br>地址: 高雄市楠梓區藍田路288號(近中山高中)<br>營業時間: 24HR<br>目前狀態: 已啟用<br>Latitude: 22.727367<br>Longitude: 120.291102,,,,,"-1","0","-1",,,0b6457a3-1197-4625-9031-0cbe59a73004,高雄市楠梓區藍田路288號(近中山高中),已啟用,"22.727367","120.291102"
新北市萬板高架橋下停車場站(多站),VmId: 0b73ddf9-83df-41c7-a89b-f8dae4098532<br>地址: 新北市板橋區萬板路310號對面(近萬板路/雙十路二段口)<br>營業時間: 24HR<br>目前狀態: 已啟用<br>Latitude: 25.025171<br>Longitude: 121.477644,,,,,"-1","0","-1",,,0b73ddf9-83df-41c7-a89b-f8dae4098532,新北市板橋區萬板路310號對面(近萬板路/雙十路二段口),已啟用,"25.025171","121.477644"
臺鐵千甲車站,VmId: 0b7e301d-3bb8-4a67-80e4-2bc67999b9be<br>地址: 新竹市東區千甲路142號(近YouBike 千甲火車站)<br>營業時間: 24HR<br>目前狀態: 已啟用<br>Latitude: 24.807208<br>Longitude: 121.001892,,,,,"-1","0","-1",,,0b7e301d-3bb8-4a67-80e4-2bc67999b9be,新竹市東區千甲路142號(近YouBike 千甲火車站),已啟用,"24.807208","121.001892"
新北市鷺江立體停車場站(多站),VmId: 0b86f3c5-989e-4d12-b508-b2fd4ce0ca79<br>地址: 新北市蘆洲區民權路26號(近民權路/民權路3巷口)<br>營業時間: 24HR<br>目前狀態: 已啟用<br>Latitude: 25.086104<br>Longitude: 121.476740,,,,,"-1","0","-1",,,0b86f3c5-989e-4d12-b508-b2fd4ce0ca79,新北市蘆洲區民權路26號(近民權路/民權路3巷口),已啟用,"25.086104","121.476740"
臺中市永興停車場站(多站),VmId: 0b961ce7-1700-4281-887c-ae10a84770c1<br>地址: 臺中市北區太原路、永興街(近太原路/永興街路口)<br>營業時間: 24HR<br>目前狀態: 已啟用<br>Latitude: 24.165032<br>Longitude: 120.681851,,,,,"-1","0","-1",,,0b961ce7-1700-4281-887c-ae10a84770c1,臺中市北區太原路、永興街(近太原路/永興街路口),已啟用,"24.165032","120.681851"
中油國賓加油站,VmId: 0bc50aa2-e590-4ffe-8b26-ff566513c249<br>地址: 台南市佳里區同安寮1之9號(近NISSAN汽車)<br>營業時間: 24HR<br>目前狀態: 已啟用<br>Latitude: 23.165475<br>Longitude: 120.188690,,,,,"-1","0","-1",,,0bc50aa2-e590-4ffe-8b26-ff566513c249,台南市佳里區同安寮1之9號(近NISSAN汽車),已啟用,"23.165475","120.188690"
Gogoro 桃園中華門市店站,VmId: 0be35a1c-a599-47c3-ae58-c157a8bcdcdd<br>地址: 桃園市桃園區中華路10號(近中華路/民權路口)<br>營業時間: 24HR<br>目前狀態: 已啟用<br>Latitude: 24.991272<br>Longitude: 121.311672,,,,,"-1","0","-1",,,0be35a1c-a599-47c3-ae58-c157a8bcdcdd,桃園市桃園區中華路10號(近中華路/民權路口),已啟用,"24.991272","121.311672"
中油萬隆加油站,VmId: 0be5512d-6109-4393-88aa-a382b1dcb9c6<br>地址: 台北市文山區興隆路一段13號(近台北花木批發市場)<br>營業時間: 24HR<br>目前狀態: 已啟用<br>Latitude: 25.004494<br>Longitude: 121.539192,,,,,"-1","0","-1",,,0be5512d-6109-4393-88aa-a382b1dcb9c6,台北市文山區興隆路一段13號(近台北花木批發市場),已啟用,"25.004494","121.539192"
三重後竹圍親子館站,VmId: 0be82703-e711-4461-aea5-42a03e644061<br>地址: 新北市三重區忠孝路一段37號(近後竹圍親子館閱覽室)<br>營業時間: 24HR<br>目前狀態: 已啟用<br>Latitude: 25.072145<br>Longitude: 121.491046,,,,,"-1","0","-1",,,0be82703-e711-4461-aea5-42a03e644061,新北市三重區忠孝路一段37號(近後竹圍親子館閱覽室),已啟用,"25.072145","121.491046"
814生鮮超市龍泉店站(多站),VmId: 0c033569-d2b3-412e-aba9-6d507b904a0f<br>地址: 屏東縣內埔鄉昭勝路281號(近昭勝路/龍真路)<br>營業時間: 24HR<br>目前狀態: 已啟用<br>Latitude: 22.674976<br>Longitude: 120.600804,,,,,"-1","0","-1",,,0c033569-d2b3-412e-aba9-6d507b904a0f,屏東縣內埔鄉昭勝路281號(近昭勝路/龍真路),已啟用,"22.674976","120.600804"
中油千億加油站,VmId: 0c0ea3eb-8c64-4fbe-a55f-0a4af49634b3<br>地址: 桃園市平鎮區延平路三段489號(近延平路三段/快速路三段口)<br>營業時間: 24HR<br>目前狀態: 已啟用<br>Latitude: 24.931689<br>Longitude: 121.197984,,,,,"-1","0","-1",,,0c0ea3eb-8c64-4fbe-a55f-0a4af49634b3,桃園市平鎮區延平路三段489號(近延平路三段/快速路三段口),已啟用,"24.931689","121.197984"
新北市新店高中地下停車場站(多站),VmId: 0c2ece40-a575-4612-950d-8ba19c0955a9<br>地址: 新北市新店區三民路161號(近三民路/百忍街43巷3弄交叉口)<br>營業時間: 24HR<br>目前狀態: 已啟用<br>Latitude: 24.974688<br>Longitude: 121.534401,,,,,"-1","0","-1",,,0c2ece40-a575-4612-950d-8ba19c0955a9,新北市新店區三民路161號(近三民路/百忍街43巷3弄交叉口),已啟用,"24.974688","121.534401"
新北市仁信段平面停車場站(多站),VmId: 0c500ffe-4eb9-4737-844b-105dc45d834b<br>地址: 新北市三重區元信二街176巷旁(近元信二街及元信二街176巷口)<br>營業時間: 24HR<br>目前狀態: 已啟用<br>Latitude: 25.078995<br>Longitude: 121.495959,,,,,"-1","0","-1",,,0c500ffe-4eb9-4737-844b-105dc45d834b,新北市三重區元信二街176巷旁(近元信二街及元信二街176巷口),已啟用,"25.078995","121.495959"
中油官田工業區加油站,VmId: 0c72499e-215b-4f24-8dc0-3e65b6320945<br>地址: 台南市官田區二鎮里工業路23-1號(近建業路/工業路口)<br>營業時間: 24HR<br>目前狀態: 已啟用<br>Latitude: 23.210508<br>Longitude: 120.322963,,,,,"-1","0","-1",,,0c72499e-215b-4f24-8dc0-3e65b6320945,台南市官田區二鎮里工業路23-1號(近建業路/工業路口),已啟用,"23.210508","120.322963"
7-ELEVEN 亮宏店站,VmId: 0c9fac79-c3c8-4ef2-b3ca-46b2187b77ff<br>地址: 高雄市鳳山區文德里文衡路558號1樓(近文衡路/文安街口)<br>營業時間: 24HR<br>目前狀態: 已啟用<br>Latitude: 22.641637<br>Longitude: 120.347648,,,,,"-1","0","-1",,,0c9fac79-c3c8-4ef2-b3ca-46b2187b77ff,高雄市鳳山區文德里文衡路558號1樓(近文衡路/文安街口),已啟用,"22.641637","120.347648"
MissGreen 美式蔬食餐廳站,VmId: 0cb4ff83-ed39-4a5c-baac-1be5d494cfb3<br>地址: 台北市大安區敦化南路二段63巷28號(近立人國際國民中小學)<br>營業時間: 24HR<br>目前狀態: 已啟用<br>Latitude: 25.030885<br>Longitude: 121.550590,,,,,"-1","0","-1",,,0cb4ff83-ed39-4a5c-baac-1be5d494cfb3,台北市大安區敦化南路二段63巷28號(近立人國際國民中小學),已啟用,"25.030885","121.550590"
全家土城頂埔店站,VmId: 0cc9e3d5-881b-4249-8d90-1db58c0ac921<br>地址: 新北市土城區中央路四段262號(近新北市土城區頂埔國民小學)<br>營業時間: 24HR<br>目前狀態: 已啟用<br>Latitude: 24.956810<br>Longitude: 121.414774,,,,,"-1","0","-1",,,0cc9e3d5-881b-4249-8d90-1db58c0ac921,新北市土城區中央路四段262號(近新北市土城區頂埔國民小學),已啟用,"24.956810","121.414774"
宏佳騰嘉義興業西店站,VmId: 0cd80523-b2dd-4678-800f-448cb9ce5e08<br>地址: 嘉義市西區興業西路17.19號(近興業西路/民生南路口)<br>營業時間: 24HR<br>目前狀態: 已啟用<br>Latitude: 23.468395<br>Longitude: 120.445840,,,,,"-1","0","-1",,,0cd80523-b2dd-4678-800f-448cb9ce5e08,嘉義市西區興業西路17.19號(近興業西路/民生南路口),已啟用,"23.468395","120.445840"
全家土城新亞店站,VmId: 0ce581ba-0851-4ff8-8cd8-840bc5152b39<br>地址: 新北市土城區亞洲路57號(近大安路/亞洲路口)<br>營業時間: 24HR<br>目前狀態: 已啟用<br>Latitude: 24.971136<br>Longitude: 121.433338,,,,,"-1","0","-1",,,0ce581ba-0851-4ff8-8cd8-840bc5152b39,新北市土城區亞洲路57號(近大安路/亞洲路口),已啟用,"24.971136","121.433338"
臺中市東區區公所站(多站),VmId: 0ce58a82-f9f6-49fb-b102-77df5119a70f<br>地址: 臺中市東區長福路245號(近長福路/東區五街路口)<br>營業時間: 24HR<br>目前狀態: 已啟用<br>Latitude: 24.137038<br>Longitude: 120.703963,,,,,"-1","0","-1",,,0ce58a82-f9f6-49fb-b102-77df5119a70f,臺中市東區長福路245號(近長福路/東區五街路口),已啟用,"24.137038","120.703963"
中油潭子加油站,VmId: 0cf1e081-4dec-4579-8a7c-cbee17d18d6e<br>地址: 台中市潭子區中山路三段409號(近中山路三段/豐栗路口)<br>營業時間: 24HR<br>目前狀態: 已啟用<br>Latitude: 24.231314<br>Longitude: 120.708372,,,,,"-1","0","-1",,,0cf1e081-4dec-4579-8a7c-cbee17d18d6e,台中市潭子區中山路三段409號(近中山路三段/豐栗路口),已啟用,"24.231314","120.708372"
中油台糖龍林加油站,VmId: 0d5426a2-df79-4b8c-b47f-798cb5929e8b<br>地址: 雲林縣褒忠鄉潮厝46-18號(近台19/縣道158甲)<br>營業時間: 24HR<br>目前狀態: 已啟用<br>Latitude: 23.719955<br>Longitude: 120.327562,,,,,"-1","0","-1",,,0d5426a2-df79-4b8c-b47f-798cb5929e8b,雲林縣褒忠鄉潮厝46-18號(近台19/縣道158甲),已啟用,"23.719955","120.327562"
深坑帝品苑前停車場站(多站),VmId: 0d59e7a5-b452-43f1-8ddd-bd4d2f7249d7<br>地址: 新北市深坑區北深路三段165號旁(近東南科技大學)<br>營業時間: 24HR<br>目前狀態: 已啟用<br>Latitude: 25.003395<br>Longitude: 121.602151,,,,,"-1","0","-1",,,0d59e7a5-b452-43f1-8ddd-bd4d2f7249d7,新北市深坑區北深路三段165號旁(近東南科技大學),已啟用,"25.003395","121.602151"
新北市臺北大學特定區停一停車場站(多站),VmId: 0d69c60a-3692-4a54-81dc-481fc809d3e6<br>地址: 新北市樹林區大義路與學成路口(近臺北大學特定區停一停車場)<br>營業時間: 24HR<br>目前狀態: 已啟用<br>Latitude: 24.945283<br>Longitude: 121.378491,,,,,"-1","0","-1",,,0d69c60a-3692-4a54-81dc-481fc809d3e6,新北市樹林區大義路與學成路口(近臺北大學特定區停一停車場),已啟用,"24.945283","121.378491"
台亞精武加油站,VmId: 0d74ca55-ff0e-48d0-b65d-457ee3b6f14b<br>地址: 台中市東區精武東路42號(近精武東路與東英路交叉口)<br>營業時間: 24HR<br>目前狀態: 已啟用<br>Latitude: 24.148027<br>Longitude: 120.706069,,,,,"-1","0","-1",,,0d74ca55-ff0e-48d0-b65d-457ee3b6f14b,台中市東區精武東路42號(近精武東路與東英路交叉口),已啟用,"24.148027","120.706069"
花蓮市公所站(多站),VmId: 0d96c2df-d825-48c9-bb45-c4dca39a5e76<br>地址: 花蓮縣花蓮市林森路252號(近復興街/林森路口)<br>營業時間: 24HR<br>目前狀態: 已啟用<br>Latitude: 23.982203<br>Longitude: 121.606733,,,,,"-1","0","-1",,,0d96c2df-d825-48c9-bb45-c4dca39a5e76,花蓮縣花蓮市林森路252號(近復興街/林森路口),已啟用,"23.982203","121.606733"
全聯台南裕農店站(多站),VmId: 0daa7afb-44aa-406b-b7fe-a149a9e9b7e4<br>地址: 台南市東區裕農路400號(近裕農路/裕農路389巷)<br>營業時間: 24HR<br>目前狀態: 已啟用<br>Latitude: 22.987580<br>Longitude: 120.231162,,,,,"-1","0","-1",,,0daa7afb-44aa-406b-b7fe-a149a9e9b7e4,台南市東區裕農路400號(近裕農路/裕農路389巷),已啟用,"22.987580","120.231162"
統一速邁樂龍潭二加油站(多站),VmId: 0dbb132d-a316-40db-8d82-f5277a6aee64<br>地址: 桃園市龍潭區中興路448號(近國軍桃園總醫院)<br>營業時間: 24HR<br>目前狀態: 已啟用<br>Latitude: 24.872387<br>Longitude: 121.228071,,,,,"-1","0","-1",,,0dbb132d-a316-40db-8d82-f5277a6aee64,桃園市龍潭區中興路448號(近國軍桃園總醫院),已啟用,"24.872387","121.228071"
宏佳騰新竹北大店站,VmId: 0dd883e2-ec21-480e-abbd-dccdfb43e701<br>地址: 新竹市北區北大路350號(近北大路與少年街口)<br>營業時間: 24HR<br>目前狀態: 已啟用<br>Latitude: 24.805695<br>Longitude: 120.961431,,,,,"-1","0","-1",,,0dd883e2-ec21-480e-abbd-dccdfb43e701,新竹市北區北大路350號(近北大路與少年街口),已啟用,"24.805695","120.961431"
中油大埔加油站,VmId: 0e0b6136-29a5-4460-a245-b42fe603afb5<br>地址: 新北市三峽區中正路二段165號(近中正路二段/中正路二段167巷口)<br>營業時間: 24HR<br>目前狀態: 已啟用<br>Latitude: 24.915079<br>Longitude: 121.366463,,,,,"-1","0","-1",,,0e0b6136-29a5-4460-a245-b42fe603afb5,新北市三峽區中正路二段165號(近中正路二段/中正路二段167巷口),已啟用,"24.915079","121.366463"
臺北市前港公園站(多站),VmId: 0e14d601-dff6-4868-bc42-9c45897a3efb<br>地址: 臺北市士林區前港街45號(近前港街/後港街口)<br>營業時間: 24HR<br>目前狀態: 已啟用<br>Latitude: 25.084961<br>Longitude: 121.521316,,,,,"-1","0","-1",,,0e14d601-dff6-4868-bc42-9c45897a3efb,臺北市士林區前港街45號(近前港街/後港街口),已啟用,"25.084961","121.521316"
全家中壢青埔店站(多站),VmId: 0e2ef9bd-e316-4af7-8f4f-d00091fe09a3<br>地址: 桃園市中壢區洽溪里7鄰領航北路二段66號(近領航北路二段/民權路四段交叉口)<br>營業時間: 24HR<br>目前狀態: 已啟用<br>Latitude: 25.007310<br>Longitude: 121.202210,,,,,"-1","0","-1",,,0e2ef9bd-e316-4af7-8f4f-d00091fe09a3,桃園市中壢區洽溪里7鄰領航北路二段66號(近領航北路二段/民權路四段交叉口),已啟用,"25.007310","121.202210"
全聯嘉義民國店站,VmId: 0e43a809-0e81-4059-be05-d78a8d042686<br>地址: 嘉義市東區民國路30號(近民國路/朝陽街口)<br>營業時間: 24HR<br>目前狀態: 已啟用<br>Latitude: 23.475652<br>Longitude: 120.460929,,,,,"-1","0","-1",,,0e43a809-0e81-4059-be05-d78a8d042686,嘉義市東區民國路30號(近民國路/朝陽街口),已啟用,"23.475652","120.460929"
北昌路停車場站(多站),VmId: 0e581ba0-80d5-4fc1-9b07-6c4ed6386a2e<br>地址: 高雄市鳳山區北昌二街(近北昌二街/北昌路口)<br>營業時間: 24HR<br>目前狀態: 已啟用<br>Latitude: 22.646240<br>Longitude: 120.372330,,,,,"-1","0","-1",,,0e581ba0-80d5-4fc1-9b07-6c4ed6386a2e,高雄市鳳山區北昌二街(近北昌二街/北昌路口),已啟用,"22.646240","120.372330"
新北市養工處樹林大安路站(多站),VmId: 0e5e33da-fa89-40bb-b2fa-eee0cf9ced07<br>地址: 新北市樹林區大安路118號(近家樂福樹林店)<br>營業時間: 24HR<br>目前狀態: 已啟用<br>Latitude: 24.997698<br>Longitude: 121.422106,,,,,"-1","0","-1",,,0e5e33da-fa89-40bb-b2fa-eee0cf9ced07,新北市樹林區大安路118號(近家樂福樹林店),已啟用,"24.997698","121.422106"
全家政富店站,VmId: 0e7284ac-6786-4ff9-9293-b9f4c713c31a<br>地址: 台北市文山區指南路二段145號(近政治大學)<br>營業時間: 24HR<br>目前狀態: 已啟用<br>Latitude: 24.987453<br>Longitude: 121.577154,,,,,"-1","0","-1",,,0e7284ac-6786-4ff9-9293-b9f4c713c31a,台北市文山區指南路二段145號(近政治大學),已啟用,"24.987453","121.577154"
新北市永和仁愛公園站(永平路側)B,VmId: 0e7a940e-7c3b-4c21-819c-f0d5379d20c3<br>地址: 新北市永和區永平路288號對面(近永平路/永平路290巷2弄口)<br>營業時間: 24HR<br>目前狀態: 已啟用<br>Latitude: 25.012028<br>Longitude: 121.507917,,,,,"-1","0","-1",,,0e7a940e-7c3b-4c21-819c-f0d5379d20c3,新北市永和區永平路288號對面(近永平路/永平路290巷2弄口),已啟用,"25.012028","121.507917"
新北市國光公園停車場站(多站),VmId: 0eb6d6e9-e8c6-437a-a07c-32a6a0ac7957<br>地址: 新北市板橋區中正路379巷3弄與中正路325巷口(近國光國小)<br>營業時間: 24HR<br>目前狀態: 已啟用<br>Latitude: 25.019846<br>Longitude: 121.453853,,,,,"-1","0","-1",,,0eb6d6e9-e8c6-437a-a07c-32a6a0ac7957,新北市板橋區中正路379巷3弄與中正路325巷口(近國光國小),已啟用,"25.019846","121.453853"
Global Mall 屏東站(多站),VmId: 0effd2cc-a8d9-4447-ad78-9442c41e513a<br>地址: 屏東縣屏東市仁愛路90號(近屏東女中)<br>營業時間: 24HR<br>目前狀態: 已啟用<br>Latitude: 22.673036<br>Longitude: 120.493050,,,,,"-1","0","-1",,,0effd2cc-a8d9-4447-ad78-9442c41e513a,屏東縣屏東市仁愛路90號(近屏東女中),已啟用,"22.673036","120.493050"
Gogoro 安平中華門市站,VmId: 0f4f9a7f-06a1-462d-9372-22607ca69fb0<br>地址: 台南市安平區中華西路二段57號(近家樂福安平店)<br>營業時間: 24HR<br>目前狀態: 已啟用<br>Latitude: 22.988071<br>Longitude: 120.186714,,,,,"-1","0","-1",,,0f4f9a7f-06a1-462d-9372-22607ca69fb0,台南市安平區中華西路二段57號(近家樂福安平店),已啟用,"22.988071","120.186714"
臺北市興隆市場站(多站),VmId: 0f5b9195-addf-4868-bdfd-8c6370124357<br>地址: 臺北市文山區興隆路二段97號(近興隆路二段/興隆路二段123巷交叉口)<br>營業時間: 24HR<br>目前狀態: 已啟用<br>Latitude: 24.999647<br>Longitude: 121.547342,,,,,"-1","0","-1",,,0f5b9195-addf-4868-bdfd-8c6370124357,臺北市文山區興隆路二段97號(近興隆路二段/興隆路二段123巷交叉口),已啟用,"24.999647","121.547342"
全家霧峰朝科大店站(多站),VmId: 0f66bd2a-96a6-4219-917d-ba98a3a262f3<br>地址: 台中市霧峰區吉峰東路62號(近吉峰東路/民生路290巷口)<br>營業時間: 24HR<br>目前狀態: 已啟用<br>Latitude: 24.074542<br>Longitude: 120.714772,,,,,"-1","0","-1",,,0f66bd2a-96a6-4219-917d-ba98a3a262f3,台中市霧峰區吉峰東路62號(近吉峰東路/民生路290巷口),已啟用,"24.074542","120.714772"
中油建工路加油站,VmId: 0f69395c-98bd-45d0-b2d0-45b711d1f45e<br>地址: 高雄市三民區建工路566號(近中華電信對面)<br>營業時間: 24HR<br>目前狀態: 已啟用<br>Latitude: 22.650694<br>Longitude: 120.324561,,,,,"-1","0","-1",,,0f69395c-98bd-45d0-b2d0-45b711d1f45e,高雄市三民區建工路566號(近中華電信對面),已啟用,"22.650694","120.324561"
中油豐田加油站,VmId: 0f746101-200c-4e68-8624-0ecc7206adb9<br>地址: 屏東縣內埔鄉中正路467號(近中正路/建新路)<br>營業時間: 24HR<br>目前狀態: 已啟用<br>Latitude: 22.634658<br>Longitude: 120.540842,,,,,"-1","0","-1",,,0f746101-200c-4e68-8624-0ecc7206adb9,屏東縣內埔鄉中正路467號(近中正路/建新路),已啟用,"22.634658","120.540842"
全聯台南新化店站,VmId: 0f949ea3-7352-49a1-92fd-01b3c386e6ee<br>地址: 台南市新化區中正路540之1號(近中正路/中正路542巷)<br>營業時間: 24HR<br>目前狀態: 已啟用<br>Latitude: 23.039989<br>Longitude: 120.307020,,,,,"-1","0","-1",,,0f949ea3-7352-49a1-92fd-01b3c386e6ee,台南市新化區中正路540之1號(近中正路/中正路542巷),已啟用,"23.039989","120.307020"
台電土城服務所站(多站),VmId: 0faa896f-24d9-4f99-8635-b5b4b6fa64fa<br>地址: 新北市土城區中央路二段263號(近央路二段/興城路口)<br>營業時間: 24HR<br>目前狀態: 已啟用<br>Latitude: 24.970886<br>Longitude: 121.439843,,,,,"-1","0","-1",,,0faa896f-24d9-4f99-8635-b5b4b6fa64fa,新北市土城區中央路二段263號(近央路二段/興城路口),已啟用,"24.970886","121.439843"
北基百利瑞光加油站(多站),VmId: 0fabca87-416b-4d42-8d7e-6e20ee9a7a16<br>地址: 屏東縣屏東市華山里瑞光路三段202號(近瑞光路三段/中正路口)<br>營業時間: 24HR<br>目前狀態: 已啟用<br>Latitude: 22.691814<br>Longitude: 120.502903,,,,,"-1","0","-1",,,0fabca87-416b-4d42-8d7e-6e20ee9a7a16,屏東縣屏東市華山里瑞光路三段202號(近瑞光路三段/中正路口),已啟用,"22.691814","120.502903"
中油鹿港中正路加油站,VmId: 0fcf2327-6ccd-4f13-8bb4-948d54ac8ed8<br>地址: 彰化縣福興鄉中正路88號(近中正路/鹿興路口)<br>營業時間: 24HR<br>目前狀態: 已啟用<br>Latitude: 24.050184<br>Longitude: 120.441946,,,,,"-1","0","-1",,,0fcf2327-6ccd-4f13-8bb4-948d54ac8ed8,彰化縣福興鄉中正路88號(近中正路/鹿興路口),已啟用,"24.050184","120.441946"
新北市環河西路二段站(多站),VmId: 0fd9ed78-a587-467a-8e8d-2b2dff32a47b<br>地址: 新北市永和區環河西路二段5號前(近永成市民活動中心)<br>營業時間: 24HR<br>目前狀態: 建置中(其他狀態100)<br>Latitude: 25.017351<br>Longitude: 121.510265,,,,,"-1","0","-1",,,0fd9ed78-a587-467a-8e8d-2b2dff32a47b,新北市永和區環河西路二段5號前(近永成市民活動中心),建置中(其他狀態100),"25.017351","121.510265"
台北喜來登大飯店站(多站),VmId: 0fdcbbec-affe-45be-a212-5935d6e287a5<br>地址: 台北市中正區忠孝東路一段12號(近忠孝東路一段/鎮江街口)<br>營業時間: 24HR<br>目前狀態: 已啟用<br>Latitude: 25.044637<br>Longitude: 121.521595,,,,,"-1","0","-1",,,0fdcbbec-affe-45be-a212-5935d6e287a5,台北市中正區忠孝東路一段12號(近忠孝東路一段/鎮江街口),已啟用,"25.044637","121.521595"
耕讀園台中市政店站(多站),VmId: 0ff3a696-a686-4b7e-a2f0-0dfa164bbc6b<br>地址: 台中市西屯區市政路109號(近惠文五街/市政路口)<br>營業時間: 24HR<br>目前狀態: 已啟用<br>Latitude: 24.157559<br>Longitude: 120.639992,,,,,"-1","0","-1",,,0ff3a696-a686-4b7e-a2f0-0dfa164bbc6b,台中市西屯區市政路109號(近惠文五街/市政路口),已啟用,"24.157559","120.639992"
全家太平新豐年店站(多站),VmId: 0ffacce1-7446-4861-85a6-febf814079b2<br>地址: 台中市太平區大源十八街1號1樓(近大源十八街/大源路口)<br>營業時間: 24HR<br>目前狀態: 已啟用<br>Latitude: 24.141833<br>Longitude: 120.724601,,,,,"-1","0","-1",,,0ffacce1-7446-4861-85a6-febf814079b2,台中市太平區大源十八街1號1樓(近大源十八街/大源路口),已啟用,"24.141833","120.724601"
臺中市大墩停車場站(多站),VmId: 1012f314-52e3-4f31-8fa6-8643ec9de286<br>地址: 臺中市西屯區大容東街與大容東一街口(近大容東街/大容東一街口)<br>營業時間: 24HR<br>目前狀態: 已啟用<br>Latitude: 24.156259<br>Longitude: 120.648252,,,,,"-1","0","-1",,,1012f314-52e3-4f31-8fa6-8643ec9de286,臺中市西屯區大容東街與大容東一街口(近大容東街/大容東一街口),已啟用,"24.156259","120.648252"
中油歸仁加油站,VmId: 10180c29-2eaa-40a2-ae0d-623b1441ca84<br>地址: 台南市歸仁區中山路三段201號(近中山路三段/中山九街口)<br>營業時間: 24HR<br>目前狀態: 已啟用<br>Latitude: 22.967883<br>Longitude: 120.282746,,,,,"-1","0","-1",,,10180c29-2eaa-40a2-ae0d-623b1441ca84,台南市歸仁區中山路三段201號(近中山路三段/中山九街口),已啟用,"22.967883","120.282746"
新北市基層選手游泳訓練館站(多站),VmId: 101c432b-2736-4367-b04c-eb1a3ff4ed2c<br>地址: 新北市永和區民生路31號對面(近民生路/四維街口)<br>營業時間: 24HR<br>目前狀態: 已啟用<br>Latitude: 24.998371<br>Longitude: 121.522730,,,,,"-1","0","-1",,,101c432b-2736-4367-b04c-eb1a3ff4ed2c,新北市永和區民生路31號對面(近民生路/四維街口),已啟用,"24.998371","121.522730"
台灣表面黏著科技站,VmId: 101f5f56-0c7b-4570-b58d-14e14c0c9233<br>地址: 桃園市桃園區桃鶯路437號(近可口可樂世界博物館)<br>營業時間: 24HR<br>目前狀態: 已啟用<br>Latitude: 24.978821<br>Longitude: 121.321589,,,,,"-1","0","-1",,,101f5f56-0c7b-4570-b58d-14e14c0c9233,桃園市桃園區桃鶯路437號(近可口可樂世界博物館),已啟用,"24.978821","121.321589"
中油大昌八八加油站,VmId: 10470a93-ed46-441f-a495-d5754a8259b4<br>地址: 桃園市龍潭區大昌路二段80號(近大昌路二段/健行路交叉口)<br>營業時間: 24HR<br>目前狀態: 已啟用<br>Latitude: 24.866703<br>Longitude: 121.221707,,,,,"-1","0","-1",,,10470a93-ed46-441f-a495-d5754a8259b4,桃園市龍潭區大昌路二段80號(近大昌路二段/健行路交叉口),已啟用,"24.866703","121.221707"
全聯新竹振興店站(多站),VmId: 107865e6-46b2-4beb-9ced-828de900acb7<br>地址: 新竹市東區振興路116、118號(近振興路與振興路109巷口)<br>營業時間: 24HR<br>目前狀態: 已啟用<br>Latitude: 24.795364<br>Longitude: 120.960809,,,,,"-1","0","-1",,,107865e6-46b2-4beb-9ced-828de900acb7,新竹市東區振興路116、118號(近振興路與振興路109巷口),已啟用,"24.795364","120.960809"
HiLife 竹北皇家店站,VmId: 10c4cbac-5498-43d6-90e2-d5a21f731376<br>地址: 新竹縣竹北市莊敬三路117號(近莊敬三路與勝利六街口)<br>營業時間: 24HR<br>目前狀態: 已啟用<br>Latitude: 24.824858<br>Longitude: 121.026180,,,,,"-1","0","-1",,,10c4cbac-5498-43d6-90e2-d5a21f731376,新竹縣竹北市莊敬三路117號(近莊敬三路與勝利六街口),已啟用,"24.824858","121.026180"
全聯鳳山國泰店站,VmId: 10ce873c-b233-4556-9caf-f66ccf0b207d<br>地址: 高雄市鳳山區國泰路一段2號(近中山公園)<br>營業時間: 24HR<br>目前狀態: 已啟用<br>Latitude: 22.614691<br>Longitude: 120.362511,,,,,"-1","0","-1",,,10ce873c-b233-4556-9caf-f66ccf0b207d,高雄市鳳山區國泰路一段2號(近中山公園),已啟用,"22.614691","120.362511"
中油義和加油站,VmId: 10e4ebb6-6428-47ae-85df-6266dabca45f<br>地址: 雲林縣莿桐鄉三和37-5號(近埤源派出所)<br>營業時間: 24HR<br>目前狀態: 已啟用<br>Latitude: 23.775305<br>Longitude: 120.478746,,,,,"-1","0","-1",,,10e4ebb6-6428-47ae-85df-6266dabca45f,雲林縣莿桐鄉三和37-5號(近埤源派出所),已啟用,"23.775305","120.478746"
全聯大溪文化店站,VmId: 1167b3cd-9bab-4a9f-a8de-b585b0744333<br>地址: 桃園市大溪區文化路67號(近文化路/文化路75巷交岔口)<br>營業時間: 24HR<br>目前狀態: 已啟用<br>Latitude: 24.881696<br>Longitude: 121.293515,,,,,"-1","0","-1",,,1167b3cd-9bab-4a9f-a8de-b585b0744333,桃園市大溪區文化路67號(近文化路/文化路75巷交岔口),已啟用,"24.881696","121.293515"
7-ELEVEN 山民店站(多站),VmId: 116cddaa-543c-4b42-9cda-24e43944bf82<br>地址: 桃園市龜山區三民路100號(近三民路/壽山路交叉口)<br>營業時間: 24HR<br>目前狀態: 已啟用<br>Latitude: 24.995423<br>Longitude: 121.324254,,,,,"-1","0","-1",,,116cddaa-543c-4b42-9cda-24e43944bf82,桃園市龜山區三民路100號(近三民路/壽山路交叉口),已啟用,"24.995423","121.324254"
中油中苗加油站,VmId: 11aacec2-81eb-4847-824a-9fbf6bf7c3df<br>地址: 苗栗縣苗栗市中正路442號(近大川醫院)<br>營業時間: 24HR<br>目前狀態: 已啟用<br>Latitude: 24.560281<br>Longitude: 120.821368,,,,,"-1","0","-1",,,11aacec2-81eb-4847-824a-9fbf6bf7c3df,苗栗縣苗栗市中正路442號(近大川醫院),已啟用,"24.560281","120.821368"
屏東縣琉球鄉立圖書館站,VmId: 11dd8d75-1187-4021-a5d4-0d6cdccce7ef<br>地址: 屏東縣琉球鄉中山路49之16號(近中山路/民權路)<br>營業時間: 24HR<br>目前狀態: 已啟用<br>Latitude: 22.348120<br>Longitude: 120.378297,,,,,"-1","0","-1",,,11dd8d75-1187-4021-a5d4-0d6cdccce7ef,屏東縣琉球鄉中山路49之16號(近中山路/民權路),已啟用,"22.348120","120.378297"
中油福樂加油站,VmId: 1218fbe6-82f6-4656-a784-aff57a4d8ad8<br>地址: 彰化縣福興鄉員鹿路二段11號(近員鹿路二段/員鹿路二段7巷口)<br>營業時間: 24HR<br>目前狀態: 已啟用<br>Latitude: 24.036220<br>Longitude: 120.436180,,,,,"-1","0","-1",,,1218fbe6-82f6-4656-a784-aff57a4d8ad8,彰化縣福興鄉員鹿路二段11號(近員鹿路二段/員鹿路二段7巷口),已啟用,"24.036220","120.436180"
中油金田加油站,VmId: 12329352-1cb8-4336-a641-ae221b242e1f<br>地址: 台南市新市區中山路10-16號(近139縣道/中山路口)<br>營業時間: 24HR<br>目前狀態: 建置中(其他狀態100)<br>Latitude: 23.084540<br>Longitude: 120.304551,,,,,"-1","0","-1",,,12329352-1cb8-4336-a641-ae221b242e1f,台南市新市區中山路10-16號(近139縣道/中山路口),建置中(其他狀態100),"23.084540","120.304551"
7-ELEVEN 芬農店站,VmId: 12374765-6cdd-4a94-a53d-dd812c95af91<br>地址: 彰化縣芬園鄉彰南路四段337號(近彰南路四段/竹東路口)<br>營業時間: 24HR<br>目前狀態: 已啟用<br>Latitude: 24.018041<br>Longitude: 120.627379,,,,,"-1","0","-1",,,12374765-6cdd-4a94-a53d-dd812c95af91,彰化縣芬園鄉彰南路四段337號(近彰南路四段/竹東路口),已啟用,"24.018041","120.627379"
全家太平新興中店站(多站),VmId: 124237dc-6745-4748-93cc-93d222bdd3ca<br>地址: 台中市太平區永平南路1號(近永平南路/中興東路口)<br>營業時間: 24HR<br>目前狀態: 已啟用<br>Latitude: 24.130530<br>Longitude: 120.720918,,,,,"-1","0","-1",,,124237dc-6745-4748-93cc-93d222bdd3ca,台中市太平區永平南路1號(近永平南路/中興東路口),已啟用,"24.130530","120.720918"
中油安順加油站,VmId: 12744028-baa2-49f3-bcb3-3a9903b85313<br>地址: 台南市安南區安中路一段650號(近安中路一段/安中路一段698巷口)<br>營業時間: 24HR<br>目前狀態: 已啟用<br>Latitude: 23.043006<br>Longitude: 120.195624,,,,,"-1","0","-1",,,12744028-baa2-49f3-bcb3-3a9903b85313,台南市安南區安中路一段650號(近安中路一段/安中路一段698巷口),已啟用,"23.043006","120.195624"
臺鐵佳冬站(多站),VmId: 1276efde-25ff-4ea0-aba8-7773dba5d62f<br>地址: 屏東縣佳冬鄉復興路21號(近復興路/佳和路口)<br>營業時間: 24HR<br>目前狀態: 已啟用<br>Latitude: 22.414057<br>Longitude: 120.547902,,,,,"-1","0","-1",,,1276efde-25ff-4ea0-aba8-7773dba5d62f,屏東縣佳冬鄉復興路21號(近復興路/佳和路口),已啟用,"22.414057","120.547902"
臺北市南港自來水加壓站(多站),VmId: 127a0a11-12d3-4e8d-81a3-9dff0daea9e6<br>地址: 臺北市南港區研究院路二段1號(近大坑街/研究院路二段3巷之間)<br>營業時間: 24HR<br>目前狀態: 已啟用<br>Latitude: 25.048139<br>Longitude: 121.616380,,,,,"-1","0","-1",,,127a0a11-12d3-4e8d-81a3-9dff0daea9e6,臺北市南港區研究院路二段1號(近大坑街/研究院路二段3巷之間),已啟用,"25.048139","121.616380"
中油初鹿加油站,VmId: 1286276d-19c7-4d8b-b4f5-39a19e538ce7<br>地址: 台東縣卑南鄉明峰村13鄰忠孝路32號(近初鹿國中)<br>營業時間: 24HR<br>目前狀態: 已啟用<br>Latitude: 22.853035<br>Longitude: 121.092317,,,,,"-1","0","-1",,,1286276d-19c7-4d8b-b4f5-39a19e538ce7,台東縣卑南鄉明峰村13鄰忠孝路32號(近初鹿國中),已啟用,"22.853035","121.092317"
Gogoro 台中三民店站,VmId: 12a512d0-58bc-4e2b-b782-40ff6f490636<br>地址: 台中市北區三民路三段146號(近中友百貨)<br>營業時間: 24HR<br>目前狀態: 已啟用<br>Latitude: 24.151344<br>Longitude: 120.684871,,,,,"-1","0","-1",,,12a512d0-58bc-4e2b-b782-40ff6f490636,台中市北區三民路三段146號(近中友百貨),已啟用,"24.151344","120.684871"
楓康超市太平店站,VmId: 12b2101d-89d4-4590-a1a8-c989bdf1ebdf<br>地址: 台中市太平區樹德路67-1號(近樹德路/樹德路69巷路口)<br>營業時間: 24HR<br>目前狀態: 已啟用<br>Latitude: 24.151428<br>Longitude: 120.710480,,,,,"-1","0","-1",,,12b2101d-89d4-4590-a1a8-c989bdf1ebdf,台中市太平區樹德路67-1號(近樹德路/樹德路69巷路口),已啟用,"24.151428","120.710480"
麗車坊內湖旗艦店站(多站),VmId: 12c9fac7-a94a-4cee-a742-226929507e05<br>地址: 台北市內湖區舊宗路一段86號(近大潤發內湖一店)<br>營業時間: 24HR<br>目前狀態: 已啟用<br>Latitude: 25.059463<br>Longitude: 121.579580,,,,,"-1","0","-1",,,12c9fac7-a94a-4cee-a742-226929507e05,台北市內湖區舊宗路一段86號(近大潤發內湖一店),已啟用,"25.059463","121.579580"
HiLife 高市藍田店站(多站),VmId: 12d19267-a517-4889-a6ae-97571d183641<br>地址: 高雄市楠梓區藍田路948號(近藍田路/大學二十五路)<br>營業時間: 24HR<br>目前狀態: 已啟用<br>Latitude: 22.727460<br>Longitude: 120.280502,,,,,"-1","0","-1",,,12d19267-a517-4889-a6ae-97571d183641,高雄市楠梓區藍田路948號(近藍田路/大學二十五路),已啟用,"22.727460","120.280502"
新竹南寮市場站,VmId: 12d51c7e-0227-429b-9706-77bea9cc530f<br>地址: 新竹市北區東大路四段32號(近東大路四段與延平路三段路口)<br>營業時間: 24HR<br>目前狀態: 已啟用<br>Latitude: 24.841372<br>Longitude: 120.936306,,,,,"-1","0","-1",,,12d51c7e-0227-429b-9706-77bea9cc530f,新竹市北區東大路四段32號(近東大路四段與延平路三段路口),已啟用,"24.841372","120.936306"
中油信義加油站,VmId: 131923fc-063c-41d6-a91b-6766e5a9729f<br>地址: 花蓮縣玉里鎮興國路一段26號(近文中二運動公園)<br>營業時間: 24HR<br>目前狀態: 已啟用<br>Latitude: 23.325211<br>Longitude: 121.323455,,,,,"-1","0","-1",,,131923fc-063c-41d6-a91b-6766e5a9729f,花蓮縣玉里鎮興國路一段26號(近文中二運動公園),已啟用,"23.325211","121.323455"
全家永康文化店站,VmId: 132af6b0-20b3-4629-80d0-9ea44dcd52fe<br>地址: 台南市永康區文化路118號 (近文化路/永華路口)<br>營業時間: 24HR<br>目前狀態: 已啟用<br>Latitude: 23.016012<br>Longitude: 120.257934,,,,,"-1","0","-1",,,132af6b0-20b3-4629-80d0-9ea44dcd52fe,台南市永康區文化路118號 (近文化路/永華路口),已啟用,"23.016012","120.257934"
宜蘭縣五結鄉農會站(多站),VmId: 132d6c1b-ab7e-476f-8298-b3ce4c4b4c00<br>地址: 宜蘭縣五結鄉五結中路二段7號(近五結中路二段/五結路二段口)<br>營業時間: 24HR<br>目前狀態: 已啟用<br>Latitude: 24.685154<br>Longitude: 121.797647,,,,,"-1","0","-1",,,132d6c1b-ab7e-476f-8298-b3ce4c4b4c00,宜蘭縣五結鄉五結中路二段7號(近五結中路二段/五結路二段口),已啟用,"24.685154","121.797647"
桃園市八德國民運動中心站(多站),VmId: 133ae4ac-d86b-4eaf-89b7-095e9520f348<br>地址: 桃園市八德區廣福路230號(近國際路/國豐二街交叉口)<br>營業時間: 24HR<br>目前狀態: 建置中(其他狀態100)<br>Latitude: 24.960591<br>Longitude: 121.293186,,,,,"-1","0","-1",,,133ae4ac-d86b-4eaf-89b7-095e9520f348,桃園市八德區廣福路230號(近國際路/國豐二街交叉口),建置中(其他狀態100),"24.960591","121.293186"
中油橋頭加油站,VmId: 13635204-5807-4546-9bf4-e0bf637e0817<br>地址: 高雄市橋頭區成功北路15號(近橋頭火車站)<br>營業時間: 24HR<br>目前狀態: 已啟用<br>Latitude: 22.762285<br>Longitude: 120.307702,,,,,"-1","0","-1",,,13635204-5807-4546-9bf4-e0bf637e0817,高雄市橋頭區成功北路15號(近橋頭火車站),已啟用,"22.762285","120.307702"
新北市公兒四站,VmId: 1367634b-64c4-4bbc-9442-44ea2a6e22b5<br>地址: 新北市八里區文昌路與文昌一街交叉口(近十三行博物館)<br>營業時間: 24HR<br>目前狀態: 已啟用<br>Latitude: 25.156588<br>Longitude: 121.410908,,,,,"-1","0","-1",,,1367634b-64c4-4bbc-9442-44ea2a6e22b5,新北市八里區文昌路與文昌一街交叉口(近十三行博物館),已啟用,"25.156588","121.410908"
全聯田中新福店站,VmId: 136d7869-5275-41d5-820d-0dd9afb84933<br>地址: 彰化縣田中鎮福安路285號(近福安路/福安路292巷)<br>營業時間: 24HR<br>目前狀態: 已啟用<br>Latitude: 23.863562<br>Longitude: 120.587515,,,,,"-1","0","-1",,,136d7869-5275-41d5-820d-0dd9afb84933,彰化縣田中鎮福安路285號(近福安路/福安路292巷),已啟用,"23.863562","120.587515"
7-ELEVEN 巨峰店站,VmId: 138da0b6-c768-46f0-8b4c-409c8fbf6536<br>地址: 彰化縣彰化市天祥路359號(近天祥路/雲長路交叉路口)<br>營業時間: 24HR<br>目前狀態: 已啟用<br>Latitude: 24.061405<br>Longitude: 120.533386,,,,,"-1","0","-1",,,138da0b6-c768-46f0-8b4c-409c8fbf6536,彰化縣彰化市天祥路359號(近天祥路/雲長路交叉路口),已啟用,"24.061405","120.533386"
中油新集集加油站,VmId: 13aec742-a4b5-4c5f-a1ab-c307fc0398af<br>地址: 南投縣集集鎮名水路二段500號(近名水路二段/林尾路口)<br>營業時間: 24HR<br>目前狀態: 已啟用<br>Latitude: 23.821959<br>Longitude: 120.772413,,,,,"-1","0","-1",,,13aec742-a4b5-4c5f-a1ab-c307fc0398af,南投縣集集鎮名水路二段500號(近名水路二段/林尾路口),已啟用,"23.821959","120.772413"
HiLife 北縣莊國店站,VmId: 13dc897a-39df-44fb-8d07-41ba372f2034<br>地址: 新北市新莊區復興路二段31號(近中港三角公園)<br>營業時間: 24HR<br>目前狀態: 已啟用<br>Latitude: 25.044120<br>Longitude: 121.454351,,,,,"-1","0","-1",,,13dc897a-39df-44fb-8d07-41ba372f2034,新北市新莊區復興路二段31號(近中港三角公園),已啟用,"25.044120","121.454351"
全家太平建興店站(多站),VmId: 13e56115-7403-4d81-a930-c8468954d8ca<br>地址: 台中市太平區建興路268號(近建興路/正誠街口)<br>營業時間: 24HR<br>目前狀態: 已啟用<br>Latitude: 24.127304<br>Longitude: 120.726768,,,,,"-1","0","-1",,,13e56115-7403-4d81-a930-c8468954d8ca,台中市太平區建興路268號(近建興路/正誠街口),已啟用,"24.127304","120.726768"
中油枋寮北加油站,VmId: 140b33ae-a60a-4e61-b2ad-6dfd32d90591<br>地址: 屏東縣枋寮鄉中山路二段180號(近中山路二段與中正大路口)<br>營業時間: 24HR<br>目前狀態: 已啟用<br>Latitude: 22.382897<br>Longitude: 120.595983,,,,,"-1","0","-1",,,140b33ae-a60a-4e61-b2ad-6dfd32d90591,屏東縣枋寮鄉中山路二段180號(近中山路二段與中正大路口),已啟用,"22.382897","120.595983"
中油崇善加油站,VmId: 140c7179-9480-4cfb-9cd7-860463f4e64d<br>地址: 台南市東區崇善路557號(近崇善六街/崇善路口)<br>營業時間: 24HR<br>目前狀態: 已啟用<br>Latitude: 22.973078<br>Longitude: 120.229883,,,,,"-1","0","-1",,,140c7179-9480-4cfb-9cd7-860463f4e64d,台南市東區崇善路557號(近崇善六街/崇善路口),已啟用,"22.973078","120.229883"
中油文中南加油站,VmId: 1426e4a6-86b6-422f-acc2-bc09fe460b7f<br>地址: 桃園市蘆竹區文中路一段90號(近文中路一段/龍安一街口)<br>營業時間: 24HR<br>目前狀態: 已啟用<br>Latitude: 24.992269<br>Longitude: 121.270949,,,,,"-1","0","-1",,,1426e4a6-86b6-422f-acc2-bc09fe460b7f,桃園市蘆竹區文中路一段90號(近文中路一段/龍安一街口),已啟用,"24.992269","121.270949"
中油南鼓山加油站,VmId: 1427cae1-3af2-45c4-a6f5-3a48407afbae<br>地址: 高雄市鼓山區捷興二街46號(近捷運西子灣站)<br>營業時間: 24HR<br>目前狀態: 已啟用<br>Latitude: 22.622005<br>Longitude: 120.275132,,,,,"-1","0","-1",,,1427cae1-3af2-45c4-a6f5-3a48407afbae,高雄市鼓山區捷興二街46號(近捷運西子灣站),已啟用,"22.622005","120.275132"
第一銀行大稻埕分行站(多站),VmId: 14341b43-430a-4595-a29c-aeca68d13fff<br>地址: 台北市大同區迪化街一段63號(近台北霞海城隍廟)<br>營業時間: 24HR<br>目前狀態: 已啟用<br>Latitude: 25.055862<br>Longitude: 121.510055,,,,,"-1","0","-1",,,14341b43-430a-4595-a29c-aeca68d13fff,台北市大同區迪化街一段63號(近台北霞海城隍廟),已啟用,"25.055862","121.510055"
台灣柒天精品旅店站(多站),VmId: 14391e91-7498-441c-988e-568c7b4172c7<br>地址: 台北市萬華區環河南路二段282號(近環河南路二段280巷口)<br>營業時間: 24HR<br>目前狀態: 已啟用<br>Latitude: 25.032185<br>Longitude: 121.491088,,,,,"-1","0","-1",,,14391e91-7498-441c-988e-568c7b4172c7,台北市萬華區環河南路二段282號(近環河南路二段280巷口),已啟用,"25.032185","121.491088"
全家永康鹽洲店站(多站),VmId: 14417361-35f6-40ce-974d-205a68f02d7f<br>地址: 台南市永康區鹽忠街127號(近鹽行路/鹽洲街口)<br>營業時間: 24HR<br>目前狀態: 已啟用<br>Latitude: 23.042177<br>Longitude: 120.232072,,,,,"-1","0","-1",,,14417361-35f6-40ce-974d-205a68f02d7f,台南市永康區鹽忠街127號(近鹽行路/鹽洲街口),已啟用,"23.042177","120.232072"
7-ELEVEN 南濱店站,VmId: 149a4356-0edf-4253-a26d-454e767140f4<br>地址: 花蓮縣吉安鄉南濱路一段116號(近南濱路一段/東海十街口)<br>營業時間: 24HR<br>目前狀態: 已啟用<br>Latitude: 23.955854<br>Longitude: 121.601341,,,,,"-1","0","-1",,,149a4356-0edf-4253-a26d-454e767140f4,花蓮縣吉安鄉南濱路一段116號(近南濱路一段/東海十街口),已啟用,"23.955854","121.601341"
南山人壽新竹科技大樓站,VmId: 1506ed2c-b2b1-4edd-9510-eb725efb2966<br>地址: 新竹市東區公道五路二段176號(近新竹美麗信酒店)<br>營業時間: 24HR<br>目前狀態: 已啟用<br>Latitude: 24.799743<br>Longitude: 121.004877,,,,,"-1","0","-1",,,1506ed2c-b2b1-4edd-9510-eb725efb2966,新竹市東區公道五路二段176號(近新竹美麗信酒店),已啟用,"24.799743","121.004877"
UNIQLO 彰化中央路店站,VmId: 150cb388-acac-48e3-9ae6-1b01d1dbed0e<br>地址: 彰化縣彰化市中央路222號(近中央路/崙平北路口)<br>營業時間: 24HR<br>目前狀態: 已啟用<br>Latitude: 24.066731<br>Longitude: 120.528268,,,,,"-1","0","-1",,,150cb388-acac-48e3-9ae6-1b01d1dbed0e,彰化縣彰化市中央路222號(近中央路/崙平北路口),已啟用,"24.066731","120.528268"
新北市訊塘廣場站(多站),VmId: 15182a79-be1a-4d28-9659-a7d10049f813<br>地址: 新北市八里區義民街(近訊塘二路口)<br>營業時間: 24HR<br>目前狀態: 已啟用<br>Latitude: 25.142856<br>Longitude: 121.395259,,,,,"-1","0","-1",,,15182a79-be1a-4d28-9659-a7d10049f813,新北市八里區義民街(近訊塘二路口),已啟用,"25.142856","121.395259"
Gogoro 彰化中山門市站,VmId: 1579a4ab-0561-42d3-a21d-94f870c94dcf<br>地址: 彰化縣彰化市中山路二段437號(近台灣電力公司)<br>營業時間: 24HR<br>目前狀態: 已啟用<br>Latitude: 24.076705<br>Longitude: 120.544137,,,,,"-1","0","-1",,,1579a4ab-0561-42d3-a21d-94f870c94dcf,彰化縣彰化市中山路二段437號(近台灣電力公司),已啟用,"24.076705","120.544137"
Gogoro 汐止大同服務中心站,VmId: 158ecb7c-18a2-4f29-b55e-8849d4472749<br>地址: 新北市汐止區大同路二段290號(近汐止國小)<br>營業時間: 24HR<br>目前狀態: 已啟用<br>Latitude: 25.066324<br>Longitude: 121.655160,,,,,"-1","0","-1",,,158ecb7c-18a2-4f29-b55e-8849d4472749,新北市汐止區大同路二段290號(近汐止國小),已啟用,"25.066324","121.655160"
全家仁武仁龍店站(多站),VmId: 159c6a8b-54b9-40b0-a057-babbb1ec667b<br>地址: 高雄市仁武區仁林路190號(近仁林路/仁心路口)<br>營業時間: 24HR<br>目前狀態: 已啟用<br>Latitude: 22.696391<br>Longitude: 120.374365,,,,,"-1","0","-1",,,159c6a8b-54b9-40b0-a057-babbb1ec667b,高雄市仁武區仁林路190號(近仁林路/仁心路口),已啟用,"22.696391","120.374365"
中油瑞豐加油站,VmId: 15a01862-a35e-4da2-9ad1-99f0adebf7e1<br>地址: 高雄市前鎮區瑞福路2號(近崗山仔公園)<br>營業時間: 24HR<br>目前狀態: 已啟用<br>Latitude: 22.604742<br>Longitude: 120.336488,,,,,"-1","0","-1",,,15a01862-a35e-4da2-9ad1-99f0adebf7e1,高雄市前鎮區瑞福路2號(近崗山仔公園),已啟用,"22.604742","120.336488"
中油白鷺加油站(多站),VmId: 15d86be9-3bff-48ab-821c-3da562b7f8de<br>地址: 桃園市八德區廣福路946號(近廣福路/永豐路口)<br>營業時間: 24HR<br>目前狀態: 已啟用<br>Latitude: 24.959790<br>Longitude: 121.275380,,,,,"-1","0","-1",,,15d86be9-3bff-48ab-821c-3da562b7f8de,桃園市八德區廣福路946號(近廣福路/永豐路口),已啟用,"24.959790","121.275380"
中油員林加油站,VmId: 15db8b6f-bbae-4e39-9fd9-be92048445f0<br>地址: 彰化縣員林市三多里中山路二段495號(近玉山銀行員林分行)<br>營業時間: 24HR<br>目前狀態: 已啟用<br>Latitude: 23.971416<br>Longitude: 120.571360,,,,,"-1","0","-1",,,15db8b6f-bbae-4e39-9fd9-be92048445f0,彰化縣員林市三多里中山路二段495號(近玉山銀行員林分行),已啟用,"23.971416","120.571360"
家樂福內湖店站,VmId: 15df16a7-cb6e-4824-bc04-acdb96f13725<br>地址: 台北市內湖區民善街88號(近民善街/新湖二路口)<br>營業時間: 24HR<br>目前狀態: 已啟用<br>Latitude: 25.060500<br>Longitude: 121.575013,,,,,"-1","0","-1",,,15df16a7-cb6e-4824-bc04-acdb96f13725,台北市內湖區民善街88號(近民善街/新湖二路口),已啟用,"25.060500","121.575013"
7-ELEVEN 金大安店站,VmId: 15e48355-b138-45e8-bd06-9cc002df4549<br>地址: 台中市大安區中山南路241號(近興安路/中山南路口)<br>營業時間: 24HR<br>目前狀態: 已啟用<br>Latitude: 24.344150<br>Longitude: 120.588347,,,,,"-1","0","-1",,,15e48355-b138-45e8-bd06-9cc002df4549,台中市大安區中山南路241號(近興安路/中山南路口),已啟用,"24.344150","120.588347"
中油光美加油站,VmId: 15e661ba-ba0d-4e86-9091-2546d6d4ca4a<br>地址: 苗栗縣竹南鎮公義路2433-11號(近西濱公路聯絡道與公義路口)<br>營業時間: 24HR<br>目前狀態: 已啟用<br>Latitude: 24.738554<br>Longitude: 120.904366,,,,,"-1","0","-1",,,15e661ba-ba0d-4e86-9091-2546d6d4ca4a,苗栗縣竹南鎮公義路2433-11號(近西濱公路聯絡道與公義路口),已啟用,"24.738554","120.904366"
Gogoro 竹東長春服務中心站,VmId: 15fb3ace-80b1-4613-8fc7-81d40c267502<br>地址: 新竹縣竹東鎮長春路一段280號(近長春路一段與長春路一段287巷口)<br>營業時間: 24HR<br>目前狀態: 已啟用<br>Latitude: 24.736112<br>Longitude: 121.089391,,,,,"-1","0","-1",,,15fb3ace-80b1-4613-8fc7-81d40c267502,新竹縣竹東鎮長春路一段280號(近長春路一段與長春路一段287巷口),已啟用,"24.736112","121.089391"
中油彰秀加油站,VmId: 160e7767-133c-4b61-8095-f912d407db5f<br>地址: 彰化縣秀水鄉彰水路一段283號(近彰水路一段/安樂街口)<br>營業時間: 24HR<br>目前狀態: 已啟用<br>Latitude: 24.040860<br>Longitude: 120.504530,,,,,"-1","0","-1",,,160e7767-133c-4b61-8095-f912d407db5f,彰化縣秀水鄉彰水路一段283號(近彰水路一段/安樂街口),已啟用,"24.040860","120.504530"
HiLife 屏東崇朝店站,VmId: 1616e56b-ad3d-4022-9a4e-5e01cf050ced<br>地址: 屏東縣屏東市崇朝一路160號(近崇朝一路/崇朝路)<br>營業時間: 24HR<br>目前狀態: 已啟用<br>Latitude: 22.687646<br>Longitude: 120.475239,,,,,"-1","0","-1",,,1616e56b-ad3d-4022-9a4e-5e01cf050ced,屏東縣屏東市崇朝一路160號(近崇朝一路/崇朝路),已啟用,"22.687646","120.475239"
新北市成州停車場站,VmId: 16695cdd-6be8-4e81-b962-1d2cdb4c8308<br>地址: 新北市五股區凌雲路一段149巷61號(近凌雲路一段149巷61號後方空地)<br>營業時間: 24HR<br>目前狀態: 已啟用<br>Latitude: 25.100646<br>Longitude: 121.447803,,,,,"-1","0","-1",,,16695cdd-6be8-4e81-b962-1d2cdb4c8308,新北市五股區凌雲路一段149巷61號(近凌雲路一段149巷61號後方空地),已啟用,"25.100646","121.447803"
南投埔里鎮公所站,VmId: 16919161-9eaf-4670-8118-66d3637d8411<br>地址: 南投縣埔里鎮中山路二段239號(近警察局埔里分局)<br>營業時間: 24HR<br>目前狀態: 已啟用<br>Latitude: 23.966754<br>Longitude: 120.969337,,,,,"-1","0","-1",,,16919161-9eaf-4670-8118-66d3637d8411,南投縣埔里鎮中山路二段239號(近警察局埔里分局),已啟用,"23.966754","120.969337"
新北市永和仁愛公園站(仁愛路側)A,VmId: 1691cf6e-ae55-4b80-a2a1-d21d2b74f5e0<br>地址: 新北市永和區仁愛路244-1號(近仁愛路/永貞路口)<br>營業時間: 24HR<br>目前狀態: 已啟用<br>Latitude: 25.009960<br>Longitude: 121.506013,,,,,"-1","0","-1",,,1691cf6e-ae55-4b80-a2a1-d21d2b74f5e0,新北市永和區仁愛路244-1號(近仁愛路/永貞路口),已啟用,"25.009960","121.506013"
Gogoro 東區崇德門市站,VmId: 1697827c-d633-43b9-9d14-0b7068d33282<br>地址: 台南市東區崇德路592號(近崇德路/崇明十五街口)<br>營業時間: 24HR<br>目前狀態: 已啟用<br>Latitude: 22.971333<br>Longitude: 120.227440,,,,,"-1","0","-1",,,1697827c-d633-43b9-9d14-0b7068d33282,台南市東區崇德路592號(近崇德路/崇明十五街口),已啟用,"22.971333","120.227440"
中油中華路東加油站,VmId: 16a11557-2db4-4fb9-a6d0-06bde48315fd<br>地址: 台南市東區中華東路三段171號(近中華東路三段/崇德四街7巷口)<br>營業時間: 24HR<br>目前狀態: 已啟用<br>Latitude: 22.977093<br>Longitude: 120.226121,,,,,"-1","0","-1",,,16a11557-2db4-4fb9-a6d0-06bde48315fd,台南市東區中華東路三段171號(近中華東路三段/崇德四街7巷口),已啟用,"22.977093","120.226121"
7-ELEVEN 鄭子寮店站,VmId: 16b0d132-cb6a-4b48-8bc0-3bac225ff216<br>地址: 台南市北區北成路442號(近北成路/育德二路口)<br>營業時間: 24HR<br>目前狀態: 已啟用<br>Latitude: 23.019090<br>Longitude: 120.201530,,,,,"-1","0","-1",,,16b0d132-cb6a-4b48-8bc0-3bac225ff216,台南市北區北成路442號(近北成路/育德二路口),已啟用,"23.019090","120.201530"
HiLife 竹北水妍店站,VmId: 16c0c692-7c81-4fe3-a39f-b268c993ea8d<br>地址: 新竹縣竹北市莊敬南路63號(近莊敬南路與成功六街口)<br>營業時間: 24HR<br>目前狀態: 已啟用<br>Latitude: 24.818018<br>Longitude: 121.021067,,,,,"-1","0","-1",,,16c0c692-7c81-4fe3-a39f-b268c993ea8d,新竹縣竹北市莊敬南路63號(近莊敬南路與成功六街口),已啟用,"24.818018","121.021067"
中油高楠加油站,VmId: 16e1649d-89ac-45e8-b933-31358fbe6ba8<br>地址: 高雄市左營區民族一路697號(近民族一路/文守路168巷口)<br>營業時間: 24HR<br>目前狀態: 已啟用<br>Latitude: 22.671331<br>Longitude: 120.317252,,,,,"-1","0","-1",,,16e1649d-89ac-45e8-b933-31358fbe6ba8,高雄市左營區民族一路697號(近民族一路/文守路168巷口),已啟用,"22.671331","120.317252"
中油臨海工業區加油站,VmId: 16f95ede-12e6-46b7-94c6-a46cf94fa9f8<br>地址: 高雄市小港區沿海二路2號(近臨海工業區)<br>營業時間: 24HR<br>目前狀態: 已啟用<br>Latitude: 22.543015<br>Longitude: 120.370755,,,,,"-1","0","-1",,,16f95ede-12e6-46b7-94c6-a46cf94fa9f8,高雄市小港區沿海二路2號(近臨海工業區),已啟用,"22.543015","120.370755"
中油桃園埔心加油站,VmId: 17021fa9-7689-45e0-8df8-a8b5df4d0f43<br>地址: 桃園市楊梅區中山北路二段308號(近中山北路二段/梅獅路交叉口)<br>營業時間: 24HR<br>目前狀態: 已啟用<br>Latitude: 24.911862<br>Longitude: 121.174585,,,,,"-1","0","-1",,,17021fa9-7689-45e0-8df8-a8b5df4d0f43,桃園市楊梅區中山北路二段308號(近中山北路二段/梅獅路交叉口),已啟用,"24.911862","121.174585"
中油大同加油站,VmId: 170c923c-ce9b-4202-96de-7555fced0ac5<br>地址: 宜蘭縣大同鄉崙埤村泰雅路一段92號(近泰雅大橋)<br>營業時間: 24HR<br>目前狀態: 已啟用<br>Latitude: 24.671340<br>Longitude: 121.604484,,,,,"-1","0","-1",,,170c923c-ce9b-4202-96de-7555fced0ac5,宜蘭縣大同鄉崙埤村泰雅路一段92號(近泰雅大橋),已啟用,"24.671340","121.604484"
中油忠溪加油站,VmId: 174092f8-d3fa-4777-b678-6ee9abf66ca1<br>地址: 彰化縣溪湖鎮崙子腳路147號(近崙子腳路/崙子腳路141巷口)<br>營業時間: 24HR<br>目前狀態: 已啟用<br>Latitude: 23.948246<br>Longitude: 120.485595,,,,,"-1","0","-1",,,174092f8-d3fa-4777-b678-6ee9abf66ca1,彰化縣溪湖鎮崙子腳路147號(近崙子腳路/崙子腳路141巷口),已啟用,"23.948246","120.485595"
Gogoro 嘉義中山店站(多站),VmId: 17440fe0-5560-460c-9f53-583b8f05ed58<br>地址: 嘉義市西區中山路436號(近中山路/新榮路口)<br>營業時間: 24HR<br>目前狀態: 已啟用<br>Latitude: 23.479525<br>Longitude: 120.444464,,,,,"-1","0","-1",,,17440fe0-5560-460c-9f53-583b8f05ed58,嘉義市西區中山路436號(近中山路/新榮路口),已啟用,"23.479525","120.444464"
7-ELEVEN 速達店站,VmId: 177ce229-dcb2-4684-825b-a0cbc091be82<br>地址: 桃園市中壢區新生路二段378之2號(近新生路二段/新生路二段393巷口)<br>營業時間: 24HR<br>目前狀態: 已啟用<br>Latitude: 24.984965<br>Longitude: 121.222495,,,,,"-1","0","-1",,,177ce229-dcb2-4684-825b-a0cbc091be82,桃園市中壢區新生路二段378之2號(近新生路二段/新生路二段393巷口),已啟用,"24.984965","121.222495"
新北市野柳地質公園站,VmId: 17a5e36a-a810-4590-aacd-4f1fa78c3fef<br>地址: 新北市萬里區野柳里港東路155號對面(近野柳地質公園停車場)<br>營業時間: 24HR<br>目前狀態: 已啟用<br>Latitude: 25.205040<br>Longitude: 121.689941,,,,,"-1","0","-1",,,17a5e36a-a810-4590-aacd-4f1fa78c3fef,新北市萬里區野柳里港東路155號對面(近野柳地質公園停車場),已啟用,"25.205040","121.689941"
中油群邦加油站,VmId: 17b8c729-56c6-4ea5-a5d3-32b3f89ca63c<br>地址: 彰化縣永靖鄉中山路一段416號(近中山路一段/中山路一段402巷口)<br>營業時間: 24HR<br>目前狀態: 已啟用<br>Latitude: 23.910190<br>Longitude: 120.542590,,,,,"-1","0","-1",,,17b8c729-56c6-4ea5-a5d3-32b3f89ca63c,彰化縣永靖鄉中山路一段416號(近中山路一段/中山路一段402巷口),已啟用,"23.910190","120.542590"
台北捷運六張犁站(多站),VmId: 17bee7b1-5b1c-4500-9e5d-f0c3b39ef1df<br>地址: 台北市大安區和平東路三段168號(近台北捷運六張犁站出口)<br>營業時間: 24HR<br>目前狀態: 已啟用<br>Latitude: 25.023707<br>Longitude: 121.553089,,,,,"-1","0","-1",,,17bee7b1-5b1c-4500-9e5d-f0c3b39ef1df,台北市大安區和平東路三段168號(近台北捷運六張犁站出口),已啟用,"25.023707","121.553089"
7-ELEVEN 湳港店站(多站),VmId: 17d27a63-f620-451b-83ae-eb0f222f119c<br>地址: 彰化縣永靖鄉中山路一段842號(近中山路一段/永社路口)<br>營業時間: 24HR<br>目前狀態: 已啟用<br>Latitude: 23.917418<br>Longitude: 120.546230,,,,,"-1","0","-1",,,17d27a63-f620-451b-83ae-eb0f222f119c,彰化縣永靖鄉中山路一段842號(近中山路一段/永社路口),已啟用,"23.917418","120.546230"
全聯岡山岡燕店站(多站),VmId: 17db43da-7abc-4c36-b60c-3be3c353c8cd<br>地址: 高雄市岡山區岡燕路338號(近岡燕路/大德二路)<br>營業時間: 24HR<br>目前狀態: 已啟用<br>Latitude: 22.791352<br>Longitude: 120.306956,,,,,"-1","0","-1",,,17db43da-7abc-4c36-b60c-3be3c353c8cd,高雄市岡山區岡燕路338號(近岡燕路/大德二路),已啟用,"22.791352","120.306956"
Gogoro 屏東潮州門市站(多站),VmId: 17dd07ce-262e-4f18-b6ca-2e3627513ab8<br>地址: 屏東縣潮州鎮中山路177號(近台鐵潮州車站)<br>營業時間: 24HR<br>目前狀態: 已啟用<br>Latitude: 22.549792<br>Longitude: 120.537457,,,,,"-1","0","-1",,,17dd07ce-262e-4f18-b6ca-2e3627513ab8,屏東縣潮州鎮中山路177號(近台鐵潮州車站),已啟用,"22.549792","120.537457"
臺中市大地生活廣場站(多站),VmId: 17e448c3-6a61-447c-8bce-eb96893ae426<br>地址: 台中市北屯區敦富路及敦富一街交叉口(近台中捷運舊社站)<br>營業時間: 24HR<br>目前狀態: 已啟用<br>Latitude: 24.183154<br>Longitude: 120.707422,,,,,"-1","0","-1",,,17e448c3-6a61-447c-8bce-eb96893ae426,台中市北屯區敦富路及敦富一街交叉口(近台中捷運舊社站),已啟用,"24.183154","120.707422"
中油善化加油站,VmId: 17f1ebd5-6e29-4291-8bca-7c5d194190f7<br>地址: 台南市善化區中山路368號(近保安街/中山路口)<br>營業時間: 24HR<br>目前狀態: 已啟用<br>Latitude: 23.132337<br>Longitude: 120.292798,,,,,"-1","0","-1",,,17f1ebd5-6e29-4291-8bca-7c5d194190f7,台南市善化區中山路368號(近保安街/中山路口),已啟用,"23.132337","120.292798"
中油元斗北斗加油站,VmId: 180cfb38-9272-49e0-9bda-ec5a4efccf1a<br>地址: 彰化縣北斗鎮中山路一段231號(近中山路一段/舊溪路一段路口)<br>營業時間: 24HR<br>目前狀態: 已啟用<br>Latitude: 23.870399<br>Longitude: 120.513988,,,,,"-1","0","-1",,,180cfb38-9272-49e0-9bda-ec5a4efccf1a,彰化縣北斗鎮中山路一段231號(近中山路一段/舊溪路一段路口),已啟用,"23.870399","120.513988"
7-ELEVEN 寶豐店站,VmId: 181e74ef-b828-4134-a835-14a3057fbe47<br>地址: 新竹市東區高峰路536巷58-1號(近環北路與雙豐路口)<br>營業時間: 24HR<br>目前狀態: 建置中(其他狀態98)<br>Latitude: 24.768425<br>Longitude: 120.988151,,,,,"-1","0","-1",,,181e74ef-b828-4134-a835-14a3057fbe47,新竹市東區高峰路536巷58-1號(近環北路與雙豐路口),建置中(其他狀態98),"24.768425","120.988151"
中油二水加油站,VmId: 1837fdf3-682b-495b-b955-af4e19b49526<br>地址: 彰化縣二水鄉南通路二段680號(近南通路二段/民生路口)<br>營業時間: 24HR<br>目前狀態: 已啟用<br>Latitude: 23.805431<br>Longitude: 120.620908,,,,,"-1","0","-1",,,1837fdf3-682b-495b-b955-af4e19b49526,彰化縣二水鄉南通路二段680號(近南通路二段/民生路口),已啟用,"23.805431","120.620908"
全聯台中松五店站,VmId: 18616c01-978c-4bc8-83b5-bcf4b832ec19<br>地址: 台中市北屯區松竹五路二段180號(近松竹五路二段/松竹五路二段192巷口)<br>營業時間: 24HR<br>目前狀態: 已啟用<br>Latitude: 24.177069<br>Longitude: 120.713462,,,,,"-1","0","-1",,,18616c01-978c-4bc8-83b5-bcf4b832ec19,台中市北屯區松竹五路二段180號(近松竹五路二段/松竹五路二段192巷口),已啟用,"24.177069","120.713462"
18事紀館紅樓站(多站),VmId: 1899451b-ab5a-4ce0-a9d7-2a93a61d376a<br>地址: 高雄市左營區榮總路522巷17號(近霞海路/榮總路522巷口)<br>營業時間: 24HR<br>目前狀態: 已啟用<br>Latitude: 22.687801<br>Longitude: 120.322894,,,,,"-1","0","-1",,,1899451b-ab5a-4ce0-a9d7-2a93a61d376a,高雄市左營區榮總路522巷17號(近霞海路/榮總路522巷口),已啟用,"22.687801","120.322894"
全聯竹北隘口店站(多站),VmId: 18a8df3c-511f-4acb-82c5-a50f7a0c2572<br>地址: 新竹縣竹北市隘口六街57號(近隘口六街與隘口二路口)<br>營業時間: 24HR<br>目前狀態: 已啟用<br>Latitude: 24.803375<br>Longitude: 121.033454,,,,,"-1","0","-1",,,18a8df3c-511f-4acb-82c5-a50f7a0c2572,新竹縣竹北市隘口六街57號(近隘口六街與隘口二路口),已啟用,"24.803375","121.033454"
全聯羅東光榮店站,VmId: 18b603a4-33fd-426a-9983-4ff0824e9845<br>地址: 宜蘭縣羅東鎮光榮路200號(近光榮路與中山路二段口)<br>營業時間: 24HR<br>目前狀態: 已啟用<br>Latitude: 24.673989<br>Longitude: 121.777907,,,,,"-1","0","-1",,,18b603a4-33fd-426a-9983-4ff0824e9845,宜蘭縣羅東鎮光榮路200號(近光榮路與中山路二段口),已啟用,"24.673989","121.777907"
美濃中興路站,VmId: 18c019fd-74f6-4963-8c0b-6629d8e266af<br>地址: 高雄市美濃區中興路一段819號(近中興路一段/忠孝路一段)<br>營業時間: 24HR<br>目前狀態: 已啟用<br>Latitude: 22.886357<br>Longitude: 120.529578,,,,,"-1","0","-1",,,18c019fd-74f6-4963-8c0b-6629d8e266af,高雄市美濃區中興路一段819號(近中興路一段/忠孝路一段),已啟用,"22.886357","120.529578"
更生保護會基隆路站(多站),VmId: 18ce72ff-dac9-428c-b16c-87d9b9b9066f<br>地址: 台北市大安區基隆路二段166-1號旁停車場前花圃(近喬治工商)<br>營業時間: 24HR<br>目前狀態: 已啟用<br>Latitude: 25.027044<br>Longitude: 121.555313,,,,,"-1","0","-1",,,18ce72ff-dac9-428c-b16c-87d9b9b9066f,台北市大安區基隆路二段166-1號旁停車場前花圃(近喬治工商),已啟用,"25.027044","121.555313"
中油五權西路加油站,VmId: 18f23093-290d-463c-8b06-3f3c31fa54bc<br>地址: 台中市南屯區五權西路二段566號(近五權西路二段/惠中路三段路口)<br>營業時間: 24HR<br>目前狀態: 已啟用<br>Latitude: 24.141609<br>Longitude: 120.641000,,,,,"-1","0","-1",,,18f23093-290d-463c-8b06-3f3c31fa54bc,台中市南屯區五權西路二段566號(近五權西路二段/惠中路三段路口),已啟用,"24.141609","120.641000"
HiLife 中縣中秋店站,VmId: 18fbe84c-72fe-48a1-a8a7-3ef4ea1b2272<br>地址: 台中市大肚區自由路212-9號(近平和東街)<br>營業時間: 24HR<br>目前狀態: 已啟用<br>Latitude: 24.148489<br>Longitude: 120.549583,,,,,"-1","0","-1",,,18fbe84c-72fe-48a1-a8a7-3ef4ea1b2272,台中市大肚區自由路212-9號(近平和東街),已啟用,"24.148489","120.549583"
Gogoro 基隆基金門市站,VmId: 191c4217-d334-46b4-9d51-acde6fbfa77d<br>地址: 基隆市安樂區基金三路125號(近武聖街口)<br>營業時間: 24HR<br>目前狀態: 已啟用<br>Latitude: 25.156003<br>Longitude: 121.696035,,,,,"-1","0","-1",,,191c4217-d334-46b4-9d51-acde6fbfa77d,基隆市安樂區基金三路125號(近武聖街口),已啟用,"25.156003","121.696035"
中油柑園三峽加油站,VmId: 1920f123-c7c5-4e6d-bbb4-0a85e5071836<br>地址: 新北市三峽區介壽路一段385號(近介壽路一段/佳興路口)<br>營業時間: 24HR<br>目前狀態: 已啟用<br>Latitude: 24.934222<br>Longitude: 121.387626,,,,,"-1","0","-1",,,1920f123-c7c5-4e6d-bbb4-0a85e5071836,新北市三峽區介壽路一段385號(近介壽路一段/佳興路口),已啟用,"24.934222","121.387626"
全聯鹿港鹿草店站(多站),VmId: 1942e280-897d-4807-882f-d67452e4d787<br>地址: 彰化縣鹿港鎮鹿草路一段487巷11號(近彰化縣政府消防局第三大隊鹿鳴分隊)<br>營業時間: 24HR<br>目前狀態: 已啟用<br>Latitude: 24.066043<br>Longitude: 120.436666,,,,,"-1","0","-1",,,1942e280-897d-4807-882f-d67452e4d787,彰化縣鹿港鎮鹿草路一段487巷11號(近彰化縣政府消防局第三大隊鹿鳴分隊),已啟用,"24.066043","120.436666"
7-ELEVEN 鑫工和店站(多站),VmId: 1993c28c-c0d6-4289-97c3-497b88fb7377<br>地址: 台中市西屯區工業區38路30號(近工業區38路與順和二街路口)<br>營業時間: 24HR<br>目前狀態: 已啟用<br>Latitude: 24.176291<br>Longitude: 120.589751,,,,,"-1","0","-1",,,1993c28c-c0d6-4289-97c3-497b88fb7377,台中市西屯區工業區38路30號(近工業區38路與順和二街路口),已啟用,"24.176291","120.589751"
臺中市南區區公所站(多站),VmId: 199815c9-bfde-46a2-96b8-f97594f227de<br>地址: 臺中市南區工學路72號(近工學三街/工學路口)<br>營業時間: 24HR<br>目前狀態: 已啟用<br>Latitude: 24.117163<br>Longitude: 120.663283,,,,,"-1","0","-1",,,199815c9-bfde-46a2-96b8-f97594f227de,臺中市南區工學路72號(近工學三街/工學路口),已啟用,"24.117163","120.663283"
中油鶯桃路加油站,VmId: 19a76022-c416-4374-ac52-7f10ef34eb85<br>地址: 新北市鶯歌區建國路608號(近建國路/鶯桃路口)<br>營業時間: 24HR<br>目前狀態: 已啟用<br>Latitude: 24.952924<br>Longitude: 121.340461,,,,,"-1","0","-1",,,19a76022-c416-4374-ac52-7f10ef34eb85,新北市鶯歌區建國路608號(近建國路/鶯桃路口),已啟用,"24.952924","121.340461"
臺北市玉泉公園站(多站),VmId: 19b3de7b-9040-4fff-b916-8b6465f27541<br>地址: 台北市大同區西寧北路28號(近忠孝東路/市民大道間)<br>營業時間: 24HR<br>目前狀態: 已啟用<br>Latitude: 25.049809<br>Longitude: 121.507894,,,,,"-1","0","-1",,,19b3de7b-9040-4fff-b916-8b6465f27541,台北市大同區西寧北路28號(近忠孝東路/市民大道間),已啟用,"25.049809","121.507894"
中油馬公加油站(多站),VmId: 19b808db-e335-4fb9-8811-0ab00d096d37<br>地址: 澎湖縣馬公市民福路18號(近民福路/興港南運河街口)<br>營業時間: 24HR<br>目前狀態: 已啟用<br>Latitude: 23.565134<br>Longitude: 119.568292,,,,,"-1","0","-1",,,19b808db-e335-4fb9-8811-0ab00d096d37,澎湖縣馬公市民福路18號(近民福路/興港南運河街口),已啟用,"23.565134","119.568292"
中油昌平路加油站,VmId: 19f06411-8da7-4cdc-a951-7695374faf4f<br>地址: 台中市北屯區昌平路一段95號(近東光市場)<br>營業時間: 24HR<br>目前狀態: 已啟用<br>Latitude: 24.170884<br>Longitude: 120.690629,,,,,"-1","0","-1",,,19f06411-8da7-4cdc-a951-7695374faf4f,台中市北屯區昌平路一段95號(近東光市場),已啟用,"24.170884","120.690629"
高雄創新卓越站,VmId: 19fe6caf-8120-4823-b43f-d092d959d3f1<br>地址: 高雄市楠梓區芎蕉路216號(近芎蕉路/芎林一街路口)<br>營業時間: 24HR<br>目前狀態: 已啟用<br>Latitude: 22.750800<br>Longitude: 120.328840,,,,,"-1","0","-1",,,19fe6caf-8120-4823-b43f-d092d959d3f1,高雄市楠梓區芎蕉路216號(近芎蕉路/芎林一街路口),已啟用,"22.750800","120.328840"
HiLife 彰化國聖店站,VmId: 1a0d5428-8323-42bd-8414-125256514dc7<br>地址: 彰化縣彰化市中山路三段706號(近國聖國小)<br>營業時間: 24HR<br>目前狀態: 已啟用<br>Latitude: 24.094589<br>Longitude: 120.569448,,,,,"-1","0","-1",,,1a0d5428-8323-42bd-8414-125256514dc7,彰化縣彰化市中山路三段706號(近國聖國小),已啟用,"24.094589","120.569448"
宏佳騰花蓮國聯店站,VmId: 1a71bd76-7a4a-442a-aca2-bfd59fa1aae9<br>地址: 花蓮縣花蓮市國聯一路199號(近花蓮市中山公園)<br>營業時間: 24HR<br>目前狀態: 已啟用<br>Latitude: 23.989250<br>Longitude: 121.600827,,,,,"-1","0","-1",,,1a71bd76-7a4a-442a-aca2-bfd59fa1aae9,花蓮縣花蓮市國聯一路199號(近花蓮市中山公園),已啟用,"23.989250","121.600827"
7-ELEVEN 善和店站,VmId: 1a903fc4-5300-4dae-b8e0-96aafc378c15<br>地址: 台南市善化區大成路319號(近善化高中)<br>營業時間: 24HR<br>目前狀態: 已啟用<br>Latitude: 23.129703<br>Longitude: 120.298122,,,,,"-1","0","-1",,,1a903fc4-5300-4dae-b8e0-96aafc378c15,台南市善化區大成路319號(近善化高中),已啟用,"23.129703","120.298122"
全聯西螺福來店站(多站),VmId: 1ab7e113-2cf1-4747-866c-9cf1e18821c9<br>地址: 雲林縣西螺鎮中山路500號(近中山路/福來路口)<br>營業時間: 24HR<br>目前狀態: 已啟用<br>Latitude: 23.798732<br>Longitude: 120.450393,,,,,"-1","0","-1",,,1ab7e113-2cf1-4747-866c-9cf1e18821c9,雲林縣西螺鎮中山路500號(近中山路/福來路口),已啟用,"23.798732","120.450393"
7-ELEVEN 華電店站,VmId: 1b432683-c457-4385-a570-a9b9b40e7a3a<br>地址: 台北市大安區通化街177號(近中華電信通化服務中心)<br>營業時間: 24HR<br>目前狀態: 已啟用<br>Latitude: 25.027565<br>Longitude: 121.553581,,,,,"-1","0","-1",,,1b432683-c457-4385-a570-a9b9b40e7a3a,台北市大安區通化街177號(近中華電信通化服務中心),已啟用,"25.027565","121.553581"
台南市北區北安路一段212巷停車場站(多站),VmId: 1b69e062-0b25-411d-8566-d9ba7d0a523f<br>地址: 台南市北區北安路一段212巷12號前(近北安路一段212巷/北安路一段212巷22弄)<br>營業時間: 24HR<br>目前狀態: 已啟用<br>Latitude: 23.019032<br>Longitude: 120.208307,,,,,"-1","0","-1",,,1b69e062-0b25-411d-8566-d9ba7d0a523f,台南市北區北安路一段212巷12號前(近北安路一段212巷/北安路一段212巷22弄),已啟用,"23.019032","120.208307"
A21 環北站,VmId: 1ba9d448-4743-486c-88af-55d44a747c4f<br>地址: 桃園市中壢區中豐北路一段26號(近中豐北路/環北路口)<br>營業時間: 24HR<br>目前狀態: 已啟用<br>Latitude: 24.967686<br>Longitude: 121.221041,,,,,"-1","0","-1",,,1ba9d448-4743-486c-88af-55d44a747c4f,桃園市中壢區中豐北路一段26號(近中豐北路/環北路口),已啟用,"24.967686","121.221041"
中油中社加油站,VmId: 1bb909d9-72f2-4aea-821f-e522d0ab18a1<br>地址: 新竹縣竹北市中正西路447號(近中正西路與環北路五段口)<br>營業時間: 24HR<br>目前狀態: 已啟用<br>Latitude: 24.842901<br>Longitude: 120.993262,,,,,"-1","0","-1",,,1bb909d9-72f2-4aea-821f-e522d0ab18a1,新竹縣竹北市中正西路447號(近中正西路與環北路五段口),已啟用,"24.842901","120.993262"
中油光州加油站,VmId: 1bbddf63-1b55-4a7a-a475-45e7b7c1f80f<br>地址: 台南市安平區永華路二段1255號(近永華路二段/光州路口)<br>營業時間: 24HR<br>目前狀態: 已啟用<br>Latitude: 22.991259<br>Longitude: 120.159819,,,,,"-1","0","-1",,,1bbddf63-1b55-4a7a-a475-45e7b7c1f80f,台南市安平區永華路二段1255號(近永華路二段/光州路口),已啟用,"22.991259","120.159819"
全家平溪十分店站,VmId: 1bd1c93a-0536-497d-a93f-52851f1dcf5e<br>地址: 新北市平溪區靜安路三段331號(近靜安路三段及十分街口)<br>營業時間: 24HR<br>目前狀態: 已啟用<br>Latitude: 25.044611<br>Longitude: 121.779322,,,,,"-1","0","-1",,,1bd1c93a-0536-497d-a93f-52851f1dcf5e,新北市平溪區靜安路三段331號(近靜安路三段及十分街口),已啟用,"25.044611","121.779322"
鳳頂路停車場站(多站),VmId: 1bd41342-259e-4540-bd39-019ad0702469<br>地址: 高雄市鳳山區園茂路62號(近鳳頂路/過埤路口)<br>營業時間: 24HR<br>目前狀態: 已啟用<br>Latitude: 22.590838<br>Longitude: 120.357761,,,,,"-1","0","-1",,,1bd41342-259e-4540-bd39-019ad0702469,高雄市鳳山區園茂路62號(近鳳頂路/過埤路口),已啟用,"22.590838","120.357761"
全家仁德二空店站(多站),VmId: 1c0b140c-a509-4d56-b5f0-698a50f274bd<br>地址: 台南市仁德區崇德路10號(近崇德路/保生路)<br>營業時間: 24HR<br>目前狀態: 已啟用<br>Latitude: 22.958014<br>Longitude: 120.227734,,,,,"-1","0","-1",,,1c0b140c-a509-4d56-b5f0-698a50f274bd,台南市仁德區崇德路10號(近崇德路/保生路),已啟用,"22.958014","120.227734"
新北市仁愛立體停車場站,VmId: 1c3f4671-8e36-47d3-8503-19f2aeee750b<br>地址: 新北市蘆洲區民權路139號旁(近仁愛國小對面)<br>營業時間: 24HR<br>目前狀態: 已啟用<br>Latitude: 25.090698<br>Longitude: 121.471511,,,,,"-1","0","-1",,,1c3f4671-8e36-47d3-8503-19f2aeee750b,新北市蘆洲區民權路139號旁(近仁愛國小對面),已啟用,"25.090698","121.471511"
HiLife 屏東豐光店站,VmId: 1c43576b-8a39-4909-b3fe-07f2d5d441db<br>地址: 屏東縣屏東市瑞光路二段212號(近瑞光路二段與興豐路交叉口)<br>營業時間: 24HR<br>目前狀態: 已啟用<br>Latitude: 22.678431<br>Longitude: 120.507950,,,,,"-1","0","-1",,,1c43576b-8a39-4909-b3fe-07f2d5d441db,屏東縣屏東市瑞光路二段212號(近瑞光路二段與興豐路交叉口),已啟用,"22.678431","120.507950"
福懋文心路加油站(多站),VmId: 1c6ababf-e56c-413e-bbb7-12b9939f65f3<br>地址: 台中市北屯區文心路四段613號(近文心路四段/崇德路二段口)<br>營業時間: 24HR<br>目前狀態: 已啟用<br>Latitude: 24.172340<br>Longitude: 120.685877,,,,,"-1","0","-1",,,1c6ababf-e56c-413e-bbb7-12b9939f65f3,台中市北屯區文心路四段613號(近文心路四段/崇德路二段口),已啟用,"24.172340","120.685877"
全家高雄美明店站(多站),VmId: 1c8f5778-c81e-462c-a1c5-8cec58f42a5d<br>地址: 高雄市鼓山區美明路102號(近美明路與美術東二路交叉口)<br>營業時間: 24HR<br>目前狀態: 已啟用<br>Latitude: 22.665652<br>Longitude: 120.288815,,,,,"-1","0","-1",,,1c8f5778-c81e-462c-a1c5-8cec58f42a5d,高雄市鼓山區美明路102號(近美明路與美術東二路交叉口),已啟用,"22.665652","120.288815"
7-ELEVEN 福田店站,VmId: 1c91ae17-4717-4569-90cf-8de00de87bd2<br>地址: 台中市南區文心南路885號(近樹義國小)<br>營業時間: 24HR<br>目前狀態: 已啟用<br>Latitude: 24.111100<br>Longitude: 120.659230,,,,,"-1","0","-1",,,1c91ae17-4717-4569-90cf-8de00de87bd2,台中市南區文心南路885號(近樹義國小),已啟用,"24.111100","120.659230"
中油那拔林加油站,VmId: 1c9a3818-73a6-4a6f-a11b-489e0b632bbe<br>地址: 台南市新化區牧場71號(近台南牧場)<br>營業時間: 24HR<br>目前狀態: 已啟用<br>Latitude: 23.064158<br>Longitude: 120.336858,,,,,"-1","0","-1",,,1c9a3818-73a6-4a6f-a11b-489e0b632bbe,台南市新化區牧場71號(近台南牧場),已啟用,"23.064158","120.336858"
中油九如加油站,VmId: 1ccd286d-e37e-492f-b79e-c4e82c881542<br>地址: 屏東縣九如鄉九如路二段26號(近九如鄉巴轆公園)<br>營業時間: 24HR<br>目前狀態: 已啟用<br>Latitude: 22.727922<br>Longitude: 120.488982,,,,,"-1","0","-1",,,1ccd286d-e37e-492f-b79e-c4e82c881542,屏東縣九如鄉九如路二段26號(近九如鄉巴轆公園),已啟用,"22.727922","120.488982"
7-ELEVEN 林田山店站,VmId: 1ce464ef-02e8-400a-8572-0739a3bd559c<br>地址: 花蓮縣鳳林鎮長橋路108號(近台9線243公里處)<br>營業時間: 24HR<br>目前狀態: 已啟用<br>Latitude: 23.713961<br>Longitude: 121.422372,,,,,"-1","0","-1",,,1ce464ef-02e8-400a-8572-0739a3bd559c,花蓮縣鳳林鎮長橋路108號(近台9線243公里處),已啟用,"23.713961","121.422372"
新北市瑞芳區立體停車場站,VmId: 1cf41834-7d29-4791-9651-129f86e752e3<br>地址: 新北市瑞芳區民權街3之1號(近瑞芳區立體停車場)<br>營業時間: 24HR<br>目前狀態: 已啟用<br>Latitude: 25.108127<br>Longitude: 121.809399,,,,,"-1","0","-1",,,1cf41834-7d29-4791-9651-129f86e752e3,新北市瑞芳區民權街3之1號(近瑞芳區立體停車場),已啟用,"25.108127","121.809399"
車麗屋台中崇德店站,VmId: 1d44655f-344a-467a-9a06-ad44761f5e36<br>地址: 台中市北屯區崇德二路二段225號(近崇德二路二段/河北西路口)<br>營業時間: 24HR<br>目前狀態: 已啟用<br>Latitude: 24.177656<br>Longitude: 120.682585,,,,,"-1","0","-1",,,1d44655f-344a-467a-9a06-ad44761f5e36,台中市北屯區崇德二路二段225號(近崇德二路二段/河北西路口),已啟用,"24.177656","120.682585"
中油軍校路加油站,VmId: 1d51091b-bd86-40b1-b0be-868ac633e8f1<br>地址: 高雄市楠梓區軍校路737號(近海軍官校)<br>營業時間: 24HR<br>目前狀態: 已啟用<br>Latitude: 22.708762<br>Longitude: 120.292887,,,,,"-1","0","-1",,,1d51091b-bd86-40b1-b0be-868ac633e8f1,高雄市楠梓區軍校路737號(近海軍官校),已啟用,"22.708762","120.292887"
全家台中金原店站(多站),VmId: 1d57da8a-cb35-486b-b4e0-9d7aa0edb0bc<br>地址: 台中市北屯區太原路三段231號(近太原路/青島路口)<br>營業時間: 24HR<br>目前狀態: 已啟用<br>Latitude: 24.165089<br>Longitude: 120.692277,,,,,"-1","0","-1",,,1d57da8a-cb35-486b-b4e0-9d7aa0edb0bc,台中市北屯區太原路三段231號(近太原路/青島路口),已啟用,"24.165089","120.692277"
特力屋高雄鳳山店站(多站),VmId: 1d638c83-44cf-43b6-80c8-afd4d980fc43<br>地址: 高雄市鳳山區瑞隆東路99號(近鳳山區老爺里活動中心)<br>營業時間: 24HR<br>目前狀態: 已啟用<br>Latitude: 22.605747<br>Longitude: 120.342937,,,,,"-1","0","-1",,,1d638c83-44cf-43b6-80c8-afd4d980fc43,高雄市鳳山區瑞隆東路99號(近鳳山區老爺里活動中心),已啟用,"22.605747","120.342937"
中華電信內壢服務中心站(多站),VmId: 1d79b38d-4dc4-407f-aed5-9f3e3d10ea72<br>地址: 桃園市中壢區興仁路一段188號(近興仁路一段/遠東路口)<br>營業時間: 24HR<br>目前狀態: 已啟用<br>Latitude: 24.969019<br>Longitude: 121.261672,,,,,"-1","0","-1",,,1d79b38d-4dc4-407f-aed5-9f3e3d10ea72,桃園市中壢區興仁路一段188號(近興仁路一段/遠東路口),已啟用,"24.969019","121.261672"
7-ELEVEN 湖華店站(多站),VmId: 1d8924c4-cf0d-42f8-b960-55df06be53c2<br>地址: 台南市中西區西湖街3號(近西湖街/頂美三街口)<br>營業時間: 24HR<br>目前狀態: 已啟用<br>Latitude: 23.003289<br>Longitude: 120.185863,,,,,"-1","0","-1",,,1d8924c4-cf0d-42f8-b960-55df06be53c2,台南市中西區西湖街3號(近西湖街/頂美三街口),已啟用,"23.003289","120.185863"
PGO 永康中華店站,VmId: 1db6a227-93a0-4ecc-bc87-e4270ba194de<br>地址: 台南市永康區中華路670號(近中華路/中華路661巷)<br>營業時間: 24HR<br>目前狀態: 已啟用<br>Latitude: 23.015237<br>Longitude: 120.229869,,,,,"-1","0","-1",,,1db6a227-93a0-4ecc-bc87-e4270ba194de,台南市永康區中華路670號(近中華路/中華路661巷),已啟用,"23.015237","120.229869"
大潤發中和景平店B3F站(多站),VmId: 1dd36b0f-1c39-495a-bb17-815cc6d4c8c8<br>地址: 新北市中和區景平路182號(地下三樓機車停車場)(近景平路/景平路240巷口)<br>營業時間: 24HR<br>目前狀態: 已啟用<br>Latitude: 24.992540<br>Longitude: 121.515574,,,,,"-1","0","-1",,,1dd36b0f-1c39-495a-bb17-815cc6d4c8c8,新北市中和區景平路182號(地下三樓機車停車場)(近景平路/景平路240巷口),已啟用,"24.992540","121.515574"
7-ELEVEN 祐瑄店站,VmId: 1dd80169-09fa-4190-b46d-92de1127b2fe<br>地址: 台中市沙鹿區光華路502、506號(近光華路與賢忠街交叉口)<br>營業時間: 24HR<br>目前狀態: 已啟用<br>Latitude: 24.243870<br>Longitude: 120.570227,,,,,"-1","0","-1",,,1dd80169-09fa-4190-b46d-92de1127b2fe,台中市沙鹿區光華路502、506號(近光華路與賢忠街交叉口),已啟用,"24.243870","120.570227"
宏佳騰基隆信一店站,VmId: 1de57abc-cfbc-46f1-8d04-97085ab8ab4d<br>地址: 基隆市信義區信一路15號(近基隆捐血站)<br>營業時間: 24HR<br>目前狀態: 已啟用<br>Latitude: 25.128550<br>Longitude: 121.756538,,,,,"-1","0","-1",,,1de57abc-cfbc-46f1-8d04-97085ab8ab4d,基隆市信義區信一路15號(近基隆捐血站),已啟用,"25.128550","121.756538"
全聯台南歸仁店站(多站),VmId: 1e1ab7c8-8483-4c41-a147-0ea90647a829<br>地址: 臺南市歸仁區復興路87號(近復興路/和平南街口)<br>營業時間: 24HR<br>目前狀態: 已啟用<br>Latitude: 22.964822<br>Longitude: 120.295943,,,,,"-1","0","-1",,,1e1ab7c8-8483-4c41-a147-0ea90647a829,臺南市歸仁區復興路87號(近復興路/和平南街口),已啟用,"22.964822","120.295943"
臺中福利站(多站),VmId: 1e25a305-ea3f-4931-a725-78e0d5c09d21<br>地址: 臺中市東區自由路三段30號(近自由路3段/自由二街口)<br>營業時間: 24HR<br>目前狀態: 已啟用<br>Latitude: 24.142862<br>Longitude: 120.687336,,,,,"-1","0","-1",,,1e25a305-ea3f-4931-a725-78e0d5c09d21,臺中市東區自由路三段30號(近自由路3段/自由二街口),已啟用,"24.142862","120.687336"
全家楊梅瑞溪店站,VmId: 1e4887cb-4bfa-4aa7-a83f-7c0a15f0227f<br>地址: 桃園市楊梅區瑞溪路一段129號(近瑞溪路一段/三民路交叉口)<br>營業時間: 24HR<br>目前狀態: 已啟用<br>Latitude: 24.907271<br>Longitude: 121.170332,,,,,"-1","0","-1",,,1e4887cb-4bfa-4aa7-a83f-7c0a15f0227f,桃園市楊梅區瑞溪路一段129號(近瑞溪路一段/三民路交叉口),已啟用,"24.907271","121.170332"
全家車城風車店站,VmId: 1e51fa91-1a71-4e21-b9f4-a3af3e7c775a<br>地址: 屏東縣車城鄉中山路2-1號(近中山路/福安路)<br>營業時間: 24HR<br>目前狀態: 已啟用<br>Latitude: 22.069130<br>Longitude: 120.713596,,,,,"-1","0","-1",,,1e51fa91-1a71-4e21-b9f4-a3af3e7c775a,屏東縣車城鄉中山路2-1號(近中山路/福安路),已啟用,"22.069130","120.713596"
中油嘉義信義路加油站,VmId: 1e65065c-3823-4af5-8a78-343153e13e4f<br>地址: 嘉義市西區博愛路二段519號(近博愛路二段/大統路口)<br>營業時間: 24HR<br>目前狀態: 已啟用<br>Latitude: 23.468810<br>Longitude: 120.428930,,,,,"-1","0","-1",,,1e65065c-3823-4af5-8a78-343153e13e4f,嘉義市西區博愛路二段519號(近博愛路二段/大統路口),已啟用,"23.468810","120.428930"
建成國中地下停車場B1F站,VmId: 1e6b9537-c6b1-42ef-8ce7-f474b6c4427d<br>地址: 台北市大同區長安西路37號之1(地下一樓機車停車場)(近台北當代藝術館)<br>營業時間: 24HR<br>目前狀態: 已啟用<br>Latitude: 25.050452<br>Longitude: 121.519618,,,,,"-1","0","-1",,,1e6b9537-c6b1-42ef-8ce7-f474b6c4427d,台北市大同區長安西路37號之1(地下一樓機車停車場)(近台北當代藝術館),已啟用,"25.050452","121.519618"
7-ELEVEN 岦湖店站,VmId: 1e778e93-4e71-4020-a274-4157b8d2dfc0<br>地址: 新竹市香山區內湖路138號(近內湖國小)<br>營業時間: 24HR<br>目前狀態: 已啟用<br>Latitude: 24.741642<br>Longitude: 120.906032,,,,,"-1","0","-1",,,1e778e93-4e71-4020-a274-4157b8d2dfc0,新竹市香山區內湖路138號(近內湖國小),已啟用,"24.741642","120.906032"
中油通霄加油站,VmId: 1e87fa96-9ba6-48b4-9433-985b7071c484<br>地址: 苗栗縣通霄鎮中山路297號(近通霄國中)<br>營業時間: 24HR<br>目前狀態: 已啟用<br>Latitude: 24.493126<br>Longitude: 120.679911,,,,,"-1","0","-1",,,1e87fa96-9ba6-48b4-9433-985b7071c484,苗栗縣通霄鎮中山路297號(近通霄國中),已啟用,"24.493126","120.679911"
全聯仁武八德店站,VmId: 1e88a272-259c-4c73-ab15-02d86e983f8e<br>地址: 高雄市仁武區八德中路52號(近仁武區農會)<br>營業時間: 24HR<br>目前狀態: 已啟用<br>Latitude: 22.685802<br>Longitude: 120.338733,,,,,"-1","0","-1",,,1e88a272-259c-4c73-ab15-02d86e983f8e,高雄市仁武區八德中路52號(近仁武區農會),已啟用,"22.685802","120.338733"
中油嘉義中山路加油站,VmId: 1eb4d4c5-e947-4779-8c73-5ae99b24c410<br>地址: 嘉義市東區中山路90號(近中山路/維新路口)<br>營業時間: 07:00 ~ 21:00<br>目前狀態: 已啟用<br>Latitude: 23.482253<br>Longitude: 120.459518,,,,,"-1","0","-1",,,1eb4d4c5-e947-4779-8c73-5ae99b24c410,嘉義市東區中山路90號(近中山路/維新路口),已啟用,"23.482253","120.459518"
中油學甲加油站,VmId: 1ebb32cd-16a9-4634-87a0-f9fdfb3b8a47<br>地址: 台南市學甲區華宗路311號(近建國路/華宗路口)<br>營業時間: 24HR<br>目前狀態: 已啟用<br>Latitude: 23.229819<br>Longitude: 120.182650,,,,,"-1","0","-1",,,1ebb32cd-16a9-4634-87a0-f9fdfb3b8a47,台南市學甲區華宗路311號(近建國路/華宗路口),已啟用,"23.229819","120.182650"
臺中市中央公園公51站(多站),VmId: 1ed08488-3520-410b-971d-5bb0c113b1ff<br>地址: 臺中市西屯區河南路二段與甘肅路二段口(近河南路二段/甘肅路二段口)<br>營業時間: 24HR<br>目前狀態: 已啟用<br>Latitude: 24.175696<br>Longitude: 120.655118,,,,,"-1","0","-1",,,1ed08488-3520-410b-971d-5bb0c113b1ff,臺中市西屯區河南路二段與甘肅路二段口(近河南路二段/甘肅路二段口),已啟用,"24.175696","120.655118"
新竹市台鐵新莊車站前停車場站(多站),VmId: 1ed16343-a300-43fd-8a0b-a58e69c8ef16<br>地址: 新竹市東區台鐵新莊車站前(近台鐵新莊車站)<br>營業時間: 24HR<br>目前狀態: 已啟用<br>Latitude: 24.788369<br>Longitude: 121.021009,,,,,"-1","0","-1",,,1ed16343-a300-43fd-8a0b-a58e69c8ef16,新竹市東區台鐵新莊車站前(近台鐵新莊車站),已啟用,"24.788369","121.021009"
龍山里停車場站(多站),VmId: 1efc6837-1254-4200-b2dd-c9d368e7143f<br>地址: 台南市東區東門路2段158巷與光華街口(近光華街/東門路二段158巷)<br>營業時間: 24HR<br>目前狀態: 已啟用<br>Latitude: 22.984107<br>Longitude: 120.220082,,,,,"-1","0","-1",,,1efc6837-1254-4200-b2dd-c9d368e7143f,台南市東區東門路2段158巷與光華街口(近光華街/東門路二段158巷),已啟用,"22.984107","120.220082"
Gogoro 中和華中橋服務中心站(多站),VmId: 1efca68d-065a-48f8-97fe-142bd4f490e6<br>地址: 新北市中和區永和路120號(近永和路/橋和路口)<br>營業時間: 24HR<br>目前狀態: 已啟用<br>Latitude: 25.006323<br>Longitude: 121.496606,,,,,"-1","0","-1",,,1efca68d-065a-48f8-97fe-142bd4f490e6,新北市中和區永和路120號(近永和路/橋和路口),已啟用,"25.006323","121.496606"
桃園市復興停車場站(多站),VmId: 1f388a66-e371-4149-aae5-8a2a9398e31d<br>地址: 桃園市中壢區文化二路(近文化二路/元生二街口)<br>營業時間: 24HR<br>目前狀態: 已啟用<br>Latitude: 24.975097<br>Longitude: 121.251122,,,,,"-1","0","-1",,,1f388a66-e371-4149-aae5-8a2a9398e31d,桃園市中壢區文化二路(近文化二路/元生二街口),已啟用,"24.975097","121.251122"
中油信泰加油站,VmId: 1f39e611-8ee3-4025-a872-97da3fd5bf7d<br>地址: 嘉義縣中埔鄉義仁村10鄰樹頭埔1-6號(近阿里山公路)<br>營業時間: 24HR<br>目前狀態: 已啟用<br>Latitude: 23.442269<br>Longitude: 120.520891,,,,,"-1","0","-1",,,1f39e611-8ee3-4025-a872-97da3fd5bf7d,嘉義縣中埔鄉義仁村10鄰樹頭埔1-6號(近阿里山公路),已啟用,"23.442269","120.520891"
桃園市南園停車場站,VmId: 1f663356-5edc-4fe8-a5ee-164abbd3ac5e<br>地址: 桃園市中壢區南園二路277號旁(近南園二路/中福路交岔口)<br>營業時間: 24HR<br>目前狀態: 已啟用<br>Latitude: 24.971464<br>Longitude: 121.228639,,,,,"-1","0","-1",,,1f663356-5edc-4fe8-a5ee-164abbd3ac5e,桃園市中壢區南園二路277號旁(近南園二路/中福路交岔口),已啟用,"24.971464","121.228639"
臺北市仁愛路林森路口站(多站),VmId: 1facadf8-2247-426d-8a96-18370bf39e5d<br>地址: 臺北市中正區仁愛路一段(近林森南路/仁愛路一段口)<br>營業時間: 24HR<br>目前狀態: 建置中(其他狀態100)<br>Latitude: 25.039103<br>Longitude: 121.520866,,,,,"-1","0","-1",,,1facadf8-2247-426d-8a96-18370bf39e5d,臺北市中正區仁愛路一段(近林森南路/仁愛路一段口),建置中(其他狀態100),"25.039103","121.520866"
7-ELEVEN 怡平店站(多站),VmId: 1fc1a6f6-4936-4016-9af1-81cc80bc8a28<br>地址: 台南市安平區文平路462號(近文平路/怡平路140巷27弄)<br>營業時間: 24HR<br>目前狀態: 已啟用<br>Latitude: 22.993943<br>Longitude: 120.178925,,,,,"-1","0","-1",,,1fc1a6f6-4936-4016-9af1-81cc80bc8a28,台南市安平區文平路462號(近文平路/怡平路140巷27弄),已啟用,"22.993943","120.178925"
國立臺北教育大學站(多站),VmId: 1fca9d08-23bb-40ef-920a-093bdc16544f<br>地址: 台北市大安區和平東路二段134號東北側機車停車場(近臥龍街/敦化南路二段172巷)<br>營業時間: 24HR<br>目前狀態: 已啟用<br>Latitude: 25.024132<br>Longitude: 121.546616,,,,,"-1","0","-1",,,1fca9d08-23bb-40ef-920a-093bdc16544f,台北市大安區和平東路二段134號東北側機車停車場(近臥龍街/敦化南路二段172巷),已啟用,"25.024132","121.546616"
家樂福南投店站,VmId: 1fd9f6fc-abe2-484c-885d-d5e89cee59d7<br>地址: 南投縣南投市三和三路21號(近三和三路/公園南街交岔口)<br>營業時間: 24HR<br>目前狀態: 已啟用<br>Latitude: 23.905919<br>Longitude: 120.689301,,,,,"-1","0","-1",,,1fd9f6fc-abe2-484c-885d-d5e89cee59d7,南投縣南投市三和三路21號(近三和三路/公園南街交岔口),已啟用,"23.905919","120.689301"
中油安定交流道加油站,VmId: 1fea2ea5-0c8a-4669-8e57-6e7a3c216a2a<br>地址: 台南市安定區安定258-12號(近安定交流道旁)<br>營業時間: 24HR<br>目前狀態: 已啟用<br>Latitude: 23.113438<br>Longitude: 120.235225,,,,,"-1","0","-1",,,1fea2ea5-0c8a-4669-8e57-6e7a3c216a2a,台南市安定區安定258-12號(近安定交流道旁),已啟用,"23.113438","120.235225"
峨眉立體停車場B1F站,VmId: 202eb0f4-9785-4b56-b6f3-7b0b356a7d01<br>地址: 台北市萬華區峨眉街83號(地下一樓機車停車場)(近臺北市立聯合醫院昆明院區)<br>營業時間: 24HR<br>目前狀態: 已啟用<br>Latitude: 25.044324<br>Longitude: 121.505249,,,,,"-1","0","-1",,,202eb0f4-9785-4b56-b6f3-7b0b356a7d01,台北市萬華區峨眉街83號(地下一樓機車停車場)(近臺北市立聯合醫院昆明院區),已啟用,"25.044324","121.505249"
中油大翔加油站,VmId: 2030ad0f-07a1-4363-a661-f53bff053f97<br>地址: 彰化縣埔心鄉瓦北村員鹿路一段418號(近員鹿路一段/員鹿路一段381巷口)<br>營業時間: 24HR<br>目前狀態: 已啟用<br>Latitude: 23.953929<br>Longitude: 120.553893,,,,,"-1","0","-1",,,2030ad0f-07a1-4363-a661-f53bff053f97,彰化縣埔心鄉瓦北村員鹿路一段418號(近員鹿路一段/員鹿路一段381巷口),已啟用,"23.953929","120.553893"
臺中市惠文停車場站(多站),VmId: 2053e5e6-cc7c-4303-bb11-c499bc0eb50b<br>地址: 臺中市南屯區向上路二段(近向上路二段/惠文路口)<br>營業時間: 24HR<br>目前狀態: 已啟用<br>Latitude: 24.146987<br>Longitude: 120.644465,,,,,"-1","0","-1",,,2053e5e6-cc7c-4303-bb11-c499bc0eb50b,臺中市南屯區向上路二段(近向上路二段/惠文路口),已啟用,"24.146987","120.644465"
中油古坑加油站,VmId: 20839915-f8ce-48ba-9b30-6dad16baf33e<br>地址: 雲林縣古坑鄉中山路291號(近中山路/中山路243巷口)<br>營業時間: 24HR<br>目前狀態: 已啟用<br>Latitude: 23.650440<br>Longitude: 120.560197,,,,,"-1","0","-1",,,20839915-f8ce-48ba-9b30-6dad16baf33e,雲林縣古坑鄉中山路291號(近中山路/中山路243巷口),已啟用,"23.650440","120.560197"
中油中寮加油站,VmId: 209b5ce2-570f-43b9-b661-f49f676067ec<br>地址: 南投縣中寮鄉永平村永平路349-13號(近永平路/永安街口)<br>營業時間: 24HR<br>目前狀態: 已啟用<br>Latitude: 23.880210<br>Longitude: 120.761689,,,,,"-1","0","-1",,,209b5ce2-570f-43b9-b661-f49f676067ec,南投縣中寮鄉永平村永平路349-13號(近永平路/永安街口),已啟用,"23.880210","120.761689"
臺中市四民仁和人美同榮里聯合活動中心站(多站),VmId: 20aa463d-1411-4d65-a737-9992fa8d2979<br>地址: 臺中市北屯區豐樂一街78號(近四張犁公園)<br>營業時間: 24HR<br>目前狀態: 已啟用<br>Latitude: 24.195515<br>Longitude: 120.680654,,,,,"-1","0","-1",,,20aa463d-1411-4d65-a737-9992fa8d2979,臺中市北屯區豐樂一街78號(近四張犁公園),已啟用,"24.195515","120.680654"
Gogoro 東勢豐勢門市站,VmId: 20cfbce2-97f2-49ea-9c16-34f2be6cfa9b<br>地址: 台中市東勢區豐勢路263號(近豐勢路/豐勢路308巷口)<br>營業時間: 24HR<br>目前狀態: 已啟用<br>Latitude: 24.252780<br>Longitude: 120.829737,,,,,"-1","0","-1",,,20cfbce2-97f2-49ea-9c16-34f2be6cfa9b,台中市東勢區豐勢路263號(近豐勢路/豐勢路308巷口),已啟用,"24.252780","120.829737"
星巴克中正河北店站(多站),VmId: 20fcef45-371d-4710-affb-6fb01faf8385<br>地址: 高雄市苓雅區中正一路321號(近中正一路/河北路口)<br>營業時間: 24HR<br>目前狀態: 已啟用<br>Latitude: 22.629717<br>Longitude: 120.323890,,,,,"-1","0","-1",,,20fcef45-371d-4710-affb-6fb01faf8385,高雄市苓雅區中正一路321號(近中正一路/河北路口),已啟用,"22.629717","120.323890"
中油民權路加油站,VmId: 217f2232-cc34-4433-87e7-02228ae6b78f<br>地址: 高雄市前鎮區一心一路291號(近一心一路與民權二路交叉口)<br>營業時間: 24HR<br>目前狀態: 已啟用<br>Latitude: 22.609831<br>Longitude: 120.313404,,,,,"-1","0","-1",,,217f2232-cc34-4433-87e7-02228ae6b78f,高雄市前鎮區一心一路291號(近一心一路與民權二路交叉口),已啟用,"22.609831","120.313404"
全聯八德興豐店站(多站),VmId: 2187abd3-46b7-42c2-9a5e-57f7890d566a<br>地址: 桃園市八德區興豐路392、396、398號(近興豐路/建興街42巷口)<br>營業時間: 24HR<br>目前狀態: 已啟用<br>Latitude: 24.929576<br>Longitude: 121.289045,,,,,"-1","0","-1",,,2187abd3-46b7-42c2-9a5e-57f7890d566a,桃園市八德區興豐路392、396、398號(近興豐路/建興街42巷口),已啟用,"24.929576","121.289045"
臺中市社南里活動中心站(多站),VmId: 2199d301-9f8a-4ffb-84ea-c8d75177437b<br>地址: 臺中市神岡區社南街189號(近社南街/社南街180巷口)<br>營業時間: 24HR<br>目前狀態: 已啟用<br>Latitude: 24.243765<br>Longitude: 120.684652,,,,,"-1","0","-1",,,2199d301-9f8a-4ffb-84ea-c8d75177437b,臺中市神岡區社南街189號(近社南街/社南街180巷口),已啟用,"24.243765","120.684652"
大潤發中壢店站(多站),VmId: 21ca659f-e338-4443-9a6d-75813dd99a25<br>地址: 桃園市中壢區中北路二段468號(近中北路二段/中山東路一段318巷交叉口)<br>營業時間: 24HR<br>目前狀態: 已啟用<br>Latitude: 24.955348<br>Longitude: 121.235230,,,,,"-1","0","-1",,,21ca659f-e338-4443-9a6d-75813dd99a25,桃園市中壢區中北路二段468號(近中北路二段/中山東路一段318巷交叉口),已啟用,"24.955348","121.235230"
中油天滿加油站,VmId: 21ea0ed1-a71b-49be-a9d1-5d3fcfc8e2b4<br>地址: 桃園市觀音區大觀路一段200號(近大觀路一段/成功路一段口)<br>營業時間: 24HR<br>目前狀態: 已啟用<br>Latitude: 25.052733<br>Longitude: 121.152830,,,,,"-1","0","-1",,,21ea0ed1-a71b-49be-a9d1-5d3fcfc8e2b4,桃園市觀音區大觀路一段200號(近大觀路一段/成功路一段口),已啟用,"25.052733","121.152830"
臺中市文中臨時停車場站(多站),VmId: 21f96b86-fbd8-414c-a6aa-7ef81061fdf9<br>地址: 臺中市太平區建和路與育賢路口(近建和路/育賢路路口)<br>營業時間: 24HR<br>目前狀態: 已啟用<br>Latitude: 24.157805<br>Longitude: 120.719526,,,,,"-1","0","-1",,,21f96b86-fbd8-414c-a6aa-7ef81061fdf9,臺中市太平區建和路與育賢路口(近建和路/育賢路路口),已啟用,"24.157805","120.719526"
HiLife 桃縣桃正店站,VmId: 220cc59e-3b97-41e1-bc31-2065b860ea11<br>地址: 桃園市大園區華興路323號(近華興路/和平西路交叉口)<br>營業時間: 24HR<br>目前狀態: 已啟用<br>Latitude: 25.056578<br>Longitude: 121.195774,,,,,"-1","0","-1",,,220cc59e-3b97-41e1-bc31-2065b860ea11,桃園市大園區華興路323號(近華興路/和平西路交叉口),已啟用,"25.056578","121.195774"
全聯竹北光明店站(多站),VmId: 223064d1-54e7-447d-8bef-b501e91ef4cc<br>地址: 新竹縣竹北市光明六路東一段225號(近光明六路東一段與莊敬五街口)<br>營業時間: 24HR<br>目前狀態: 已啟用<br>Latitude: 24.820981<br>Longitude: 121.025609,,,,,"-1","0","-1",,,223064d1-54e7-447d-8bef-b501e91ef4cc,新竹縣竹北市光明六路東一段225號(近光明六路東一段與莊敬五街口),已啟用,"24.820981","121.025609"
台糖民族三加油站,VmId: 225442af-5550-4d6d-81d5-6e2c67f44cba<br>地址: 高雄市仁武區高楠公路62號(近高楠公路/八德二路口)<br>營業時間: 24HR<br>目前狀態: 已啟用<br>Latitude: 22.701564<br>Longitude: 120.323873,,,,,"-1","0","-1",,,225442af-5550-4d6d-81d5-6e2c67f44cba,高雄市仁武區高楠公路62號(近高楠公路/八德二路口),已啟用,"22.701564","120.323873"
7-ELEVEN 鐵鎮店站,VmId: 225971fa-f6cc-44cf-a547-f95b8b69acc0<br>地址: 桃園市大園區中正東路二段428號(近中正東路二段/南青路口)<br>營業時間: 24HR<br>目前狀態: 已啟用<br>Latitude: 25.027522<br>Longitude: 121.230231,,,,,"-1","0","-1",,,225971fa-f6cc-44cf-a547-f95b8b69acc0,桃園市大園區中正東路二段428號(近中正東路二段/南青路口),已啟用,"25.027522","121.230231"
中油宏福加油站,VmId: 225b20b0-0470-4c8c-8e3d-ebeddc606793<br>地址: 新北市三峽區介壽路一段550號(近介壽路一段/佳興路交叉口)<br>營業時間: 24HR<br>目前狀態: 已啟用<br>Latitude: 24.933264<br>Longitude: 121.387329,,,,,"-1","0","-1",,,225b20b0-0470-4c8c-8e3d-ebeddc606793,新北市三峽區介壽路一段550號(近介壽路一段/佳興路交叉口),已啟用,"24.933264","121.387329"
新北市建國一路平面停車場站(多站),VmId: 226ac638-499e-4ab5-b0f1-6b8703048609<br>地址: 新北市新莊區建國二路9號對面(近建國一路/建國二路口)<br>營業時間: 24HR<br>目前狀態: 建置中(其他狀態100)<br>Latitude: 25.024116<br>Longitude: 121.434279,,,,,"-1","0","-1",,,226ac638-499e-4ab5-b0f1-6b8703048609,新北市新莊區建國二路9號對面(近建國一路/建國二路口),建置中(其他狀態100),"25.024116","121.434279"
全聯台東更生店站(多站),VmId: 229069c5-2a6a-4322-b5b5-eb8ce7c640d5<br>地址: 臺東縣台東市更生路1051號(近貴築精品汽車旅館)<br>營業時間: 24HR<br>目前狀態: 已啟用<br>Latitude: 22.773233<br>Longitude: 121.130681,,,,,"-1","0","-1",,,229069c5-2a6a-4322-b5b5-eb8ce7c640d5,臺東縣台東市更生路1051號(近貴築精品汽車旅館),已啟用,"22.773233","121.130681"
臺中市精武廣場停車場站(多站),VmId: 22a0696d-7625-4cdf-a450-90f498f31c4b<br>地址: 臺中市東區雙十路、精武路(近雙十路/精武路口)<br>營業時間: 24HR<br>目前狀態: 已啟用<br>Latitude: 24.145789<br>Longitude: 120.686559,,,,,"-1","0","-1",,,22a0696d-7625-4cdf-a450-90f498f31c4b,臺中市東區雙十路、精武路(近雙十路/精武路口),已啟用,"24.145789","120.686559"
北基忠義加油站,VmId: 230f7a9a-e655-476b-ac94-8f63e5cae192<br>地址: 桃園市龜山區忠義路一段496號(近忠義路/光華路口)<br>營業時間: 24HR<br>目前狀態: 已啟用<br>Latitude: 25.012286<br>Longitude: 121.347580,,,,,"-1","0","-1",,,230f7a9a-e655-476b-ac94-8f63e5cae192,桃園市龜山區忠義路一段496號(近忠義路/光華路口),已啟用,"25.012286","121.347580"
新北市大漢橋下機車停車場站(多站),VmId: 2324be24-98e3-428f-b321-d5a7d9e62e8c<br>地址: 新北市捷運頭前莊站旁(近大漢橋上橋匝道下方)<br>營業時間: 24HR<br>目前狀態: 已啟用<br>Latitude: 25.037950<br>Longitude: 121.460845,,,,,"-1","0","-1",,,2324be24-98e3-428f-b321-d5a7d9e62e8c,新北市捷運頭前莊站旁(近大漢橋上橋匝道下方),已啟用,"25.037950","121.460845"
