Name,VmId,address,status,lat,lng,Hours,nBatteries,Records,MaintenanceRecord
Gogoro 三重成功門市站(多站),002e15b4-b766-40dc-9a0d-1eaf0e545c8d,新北市三重區成功路115號(近成功路/集成路口),已啟用,25.05184,121.48764,24HR,104 ,[],[]
7-ELEVEN 濱海店站,002f4908-a033-4678-8e3f-e5038c9f0319,桃園市大園區竹圍里五鄰竹圍街45-3號(近竹圍街/竹圍街44巷路口),已啟用,25.104733,121.243208,24HR,34 ,"['2019-04-11 11:20:00 ~ 新增建置中', '2019-05-22 11:30:00 ~ 狀態變更為 100 (即將啟用)', '2019-07-31 12:20:00 ~ 啟用', '2019-12-06 15:30:00 ~ 更改地址敘述']","['2021-03-15 14:00:00 ~ 2021-03-15 16:30:00', '2021-03-15 14:00:00 ~ 2021-03-15 16:30:00', '2021-03-15 14:00:00 ~ 2021-03-15 16:30:00', '2021-03-15 14:00:00 ~ 2021-03-15 16:30:00', '2021-03-15 14:00:00 ~ 2021-03-15 16:30:00', '2020-09-02 10:00:00 ~ 2020-09-02 11:30:00', '2020-08-23 19:55:00 ~ 2020-08-24 19:55:00', '2020-08-23 19:55:00 ~ 2020-08-24 19:55:00', '2020-08-23 19:55:00 ~ 2020-08-24 19:55:00', '2020-08-23 19:55:00 ~ 2020-08-24 19:55:00']"
eReady 台中旗艦店站(多站),00607f9b-ed34-45e2-8777-7841cfd962f7,台中市北區北屯路22-5號(近北屯路/德化街口),已啟用,24.161347,120.692405,24HR,52 ,[],[]
全聯屏東林森店站,006e6ccc-7a51-439e-b275-ca9e30e21320,屏東縣屏東市自由路163號(近自由路/民生路路口),已啟用,22.668561,120.494274,24HR,16 ,"['2018-09-07 15:00:00 ~ 更改地址', '2018-11-29 18:40:00 ~ 狀態變更為 100 (即將啟用)', '2018-12-25 16:40:00 ~ 將狀態 100 改回建置中', '2018-12-27 15:20:00 ~ 狀態變更為 100 (即將啟用)', '2018-12-28 11:20:00 ~ 啟用']","['2020-11-19 22:06:00 ~ 2020-11-24 22:06:00', '2020-11-19 22:06:00 ~ 2020-11-24 22:06:00', '2020-11-19 22:06:00 ~ 2020-11-24 22:06:00', '2020-11-19 22:06:00 ~ 2020-11-24 22:06:00', '2020-11-19 22:06:00 ~ 2020-11-24 22:06:00', '2020-11-19 22:06:00 ~ 2020-11-24 22:06:00', '2020-11-19 22:06:00 ~ 2020-11-24 22:06:00', '2020-11-19 22:06:00 ~ 2020-11-23 22:06:00', '2020-11-19 22:06:00 ~ 2020-11-23 22:06:00', '2020-11-19 22:06:00 ~ 2020-11-23 22:06:00']"
全聯小港店北店站(多站),00a23773-9a7d-41e1-83cd-4519f18b4919,高雄市小港區店北路159號(近店北路/店鳳街口),已啟用,22.562672,120.351212,24HR,70 ,"['2021-02-18 16:06:00 ~ 更改 GPS 位置', '2021-04-13 15:56:00 ~ 更改 GPS 位置', '2021-06-24 17:01:00 ~ 更改站名', '2022-05-31 23:16:00 ~ 更改 GPS 位置']","['2021-08-10 18:29:00 ~ 2021-08-11 18:29:00', '2021-07-28 03:32:00 ~ 2021-07-29 03:32:00', '2021-07-28 03:32:00 ~ 2021-07-29 03:32:00']"
中油台糖成功加油站,01062e78-749d-4f7e-90b2-33b3b56c318d,高雄市前鎮區成功二路2-2號(近成功二路/時代大道),已啟用,22.596899,120.305109,24HR,24 ,"['2021-09-24 15:36:00 ~ 新增建置中狀態為 100 (即將啟用)', '2021-12-01 16:31:00 ~ 啟用', '2022-05-31 23:16:00 ~ 更改 GPS 位置']",[]
康是美鳳揚藥局店站(多站),0115e8a3-3ee0-4a0e-a162-ffcb76b894d0,高雄市鳳山區文衡路379號(近文衡路/文平街),已啟用,22.64083,120.35063,24HR,46 ,[],[]
宜家家居南屯店站,011b66f2-c937-41c0-8695-b0c1f7c273ed,台中市南屯區向上路二段168號(近向上路二段/大觀路口),已啟用,24.147611,120.642856,10:00 ~ 22:00,32 ,"['2019-07-18 13:10:00 ~ 新增建置中', '2019-07-22 13:45:00 ~ 更改站名', '2019-09-17 12:40:00 ~ 狀態變更為 100 (即將啟用)', '2019-09-20 11:15:00 ~ 更改服務時間', '2019-09-20 12:55:00 ~ 啟用', '2022-05-31 23:16:00 ~ 更改 GPS 位置']","['2021-03-04 10:00:00 ~ 2021-03-04 18:00:00', '2021-03-04 10:00:00 ~ 2021-03-04 18:00:00', '2021-03-04 10:00:00 ~ 2021-03-04 18:00:00', '2021-03-04 10:00:00 ~ 2021-03-04 18:00:00', '2021-03-04 10:00:00 ~ 2021-03-04 18:00:00', '2021-03-04 10:00:00 ~ 2021-03-04 18:00:00', '2021-03-04 10:00:00 ~ 2021-03-04 18:00:00', '2021-03-04 10:00:00 ~ 2021-03-04 18:00:00', '2021-03-04 10:00:00 ~ 2021-03-04 18:00:00', '2021-03-04 10:00:00 ~ 2021-03-04 18:00:00']"
楓康超市青海店站,01255a75-d14e-4af8-8a41-d5c12acafc2b,台中市西屯區青海路二段520號(近青海路/福科二路口),已啟用,24.176111,120.636411,24HR,26 ,"['2019-07-18 12:30:00 ~ 新增建置中', '2019-08-21 17:10:00 ~ 更改地址', '2019-08-22 09:50:00 ~ 狀態變更為 100 (即將啟用)', '2019-08-28 13:30:00 ~ 啟用', '2019-09-03 14:05:00 ~ 將已啟用改回建置中', '2019-09-03 14:45:00 ~ 啟用', '2020-06-12 10:15:00 ~ 將已啟用改回建置中', '2020-06-12 17:15:00 ~ 啟用', '2022-05-31 23:16:00 ~ 更改 GPS 位置']","['2021-02-26 10:00:00 ~ 2021-02-26 18:00:00', '2021-02-26 10:00:00 ~ 2021-02-26 18:00:00', '2021-02-26 10:00:00 ~ 2021-02-26 18:00:00', '2021-02-26 10:00:00 ~ 2021-02-26 18:00:00', '2021-02-26 10:00:00 ~ 2021-02-26 18:00:00', '2021-02-26 10:00:00 ~ 2021-02-26 18:00:00', '2021-02-26 10:00:00 ~ 2021-02-26 18:00:00', '2021-02-26 10:00:00 ~ 2021-02-26 18:00:00', '2021-02-26 10:00:00 ~ 2021-02-26 18:00:00', '2021-02-22 15:20:00 ~ 2021-02-23 18:00:00']"
全聯新莊龍安店站,012c542e-da03-4207-b979-5fc78cbeb487,新北市新莊區中正路893巷2之1號(近迴龍捷運站3號出口對面),已啟用,25.020932,121.413277,24HR,18 ,['2022-05-31 23:16:00 ~ 更改 GPS 位置'],"['2021-06-07 12:00:00 ~ 2021-06-08 18:00:00', '2021-06-07 12:00:00 ~ 2021-06-08 18:00:00', '2021-06-07 12:00:00 ~ 2021-06-08 18:00:00', '2021-06-07 12:00:00 ~ 2021-06-08 18:00:00', '2021-06-07 12:00:00 ~ 2021-06-08 18:00:00', '2021-06-07 12:00:00 ~ 2021-06-08 18:00:00', '2021-06-07 12:00:00 ~ 2021-06-08 18:00:00', '2021-06-07 12:00:00 ~ 2021-06-08 18:00:00', '2021-06-07 12:00:00 ~ 2021-06-08 18:00:00', '2021-06-07 12:00:00 ~ 2021-06-08 18:00:00']"
中油八德路加油站,0145397e-bb57-4cab-9748-d5295c777f96,基隆市七堵區八德路2-15號(近八德櫻花公園),已啟用,25.104102,121.723453,24HR,24 ,"['2020-11-27 18:46:00 ~ 新增建置中狀態為 100 (即將啟用)', '2020-12-10 14:31:00 ~ 啟用', '2022-05-31 23:16:00 ~ 更改 GPS 位置']",[]
高雄市旗津復興社區站(多站),01966bfa-189a-42e8-aba0-c0d0e8c90678,高雄市旗津區旗津三路900巷與復興巷口(近旗津三路900巷/復興巷口),已啟用,22.605473,120.272907,24HR,48 ,"['2021-02-22 11:56:00 ~ 新增建置中', '2021-03-02 16:11:00 ~ 狀態變更為 100 (即將啟用)', '2021-05-14 16:31:00 ~ 更改地址敘述', '2021-06-15 13:56:00 ~ 啟用', '2021-06-16 09:51:00 ~ 更改地址敘述', '2022-05-31 23:16:00 ~ 更改 GPS 位置']",[]
全聯大園和平店站,01f7ff69-facd-455a-9e2d-129dc3fdc628,桃園市大園區和平東路65號(近和平東路與和平二街路口),已啟用,25.061972,121.200064,24HR,32 ,[],"['2021-08-14 13:02:00 ~ 2021-08-15 13:02:00', '2021-08-14 13:02:00 ~ 2021-08-15 13:02:00', '2021-06-10 12:41:00 ~ 2021-06-10 14:00:00', '2021-06-10 12:41:00 ~ 2021-06-10 14:00:00', '2020-11-18 03:00:00 ~ 2020-11-19 03:00:00', '2020-11-18 03:00:00 ~ 2020-11-19 03:00:00', '2020-11-18 03:00:00 ~ 2020-11-19 03:00:00', '2020-10-08 09:15:00 ~ 2020-10-08 11:00:00', '2020-10-08 09:15:00 ~ 2020-10-08 11:00:00', '2020-10-08 09:15:00 ~ 2020-10-08 11:00:00']"
車太炫自助洗車竹北嘉興店站,01fcef1e-1c2e-4d56-bfdc-697a83ef0f67,新竹縣竹北市嘉興路507號(近嘉興路與十興一街口),已啟用,24.823609,121.033282,06:00 ~ 22:00,18 ,"['2018-11-30 12:35:00 ~ 新增建置中', '2018-12-14 01:00:00 ~ 狀態變更為 100 (即將啟用)', '2018-12-25 18:00:00 ~ 啟用', '2022-05-31 23:16:00 ~ 更改 GPS 位置']","['2021-07-09 13:00:00 ~ 2021-07-09 16:00:00', '2021-07-09 13:00:00 ~ 2021-07-09 16:00:00', '2021-07-09 13:00:00 ~ 2021-07-09 16:00:00', '2021-07-09 13:00:00 ~ 2021-07-09 16:00:00', '2021-07-09 13:00:00 ~ 2021-07-09 16:00:00', '2021-07-09 13:00:00 ~ 2021-07-09 16:00:00', '2021-07-09 13:00:00 ~ 2021-07-09 16:00:00', '2020-12-03 10:00:00 ~ 2020-12-03 14:30:00', '2020-12-03 10:00:00 ~ 2020-12-03 15:00:00', '2020-12-03 10:00:00 ~ 2020-12-03 15:00:00']"
佳里國小廣停二停車場站,01ffe3a7-dcb6-47fc-86da-45661b59c371,台南市佳里區文化路359號(近文化路/公園路口),已啟用,23.163047,120.172299,24HR,32 ,"['2019-08-08 18:30:00 ~ 新增建置中', '2019-10-24 15:45:00 ~ 狀態變更為 100 (即將啟用)', '2019-11-22 11:50:00 ~ 啟用', '2022-05-31 23:16:00 ~ 更改 GPS 位置']","['2021-05-26 10:00:00 ~ 2021-05-26 17:00:00', '2021-05-26 10:00:00 ~ 2021-05-26 17:00:00', '2021-05-26 10:00:00 ~ 2021-05-26 17:00:00', '2021-05-26 10:00:00 ~ 2021-05-26 17:00:00', '2021-05-26 10:00:00 ~ 2021-05-26 17:00:00', '2021-05-26 10:00:00 ~ 2021-05-26 17:00:00', '2021-05-26 10:00:00 ~ 2021-05-26 17:00:00', '2021-05-26 10:00:00 ~ 2021-05-26 17:00:00', '2021-05-26 10:00:00 ~ 2021-05-26 17:00:00', '2020-11-10 19:46:00 ~ 2020-11-11 19:46:00']"
中油東大加油站,0213d693-69cb-4cad-b089-559f9c81c211,台中市西屯區臺灣大道四段1832號(近大同公司台中分公司),已啟用,24.182703,120.601056,24HR,24 ,[],[]
台亞龍潭交流道加油站,0217ecca-1cf4-4a21-a242-4414086c76d5,桃園市龍潭區中正路605號 (近中正路/雙連街交岔口),已啟用,24.855086,121.220305,24HR,34 ,"['2018-11-27 12:05:00 ~ 狀態變更為 100 (即將啟用)', '2018-11-30 13:15:00 ~ 啟用', '2019-12-06 15:10:00 ~ 更改地址敘述', '2022-05-31 23:16:00 ~ 更改 GPS 位置']","['2021-03-23 10:40:00 ~ 2021-03-23 13:10:00', '2021-03-23 10:40:00 ~ 2021-03-23 13:10:00', '2021-03-23 10:40:00 ~ 2021-03-23 13:10:00', '2021-03-23 10:40:00 ~ 2021-03-23 13:10:00', '2020-10-01 00:08:00 ~ 2020-10-02 00:08:00', '2020-09-16 13:20:00 ~ 2020-09-16 15:00:00', '2020-09-16 13:20:00 ~ 2020-09-16 15:00:00', '2020-02-19 13:39:00 ~ 2020-02-20 13:39:00', '2020-01-21 15:18:00 ~ 2020-01-22 15:18:00', '2019-11-28 02:36:00 ~ 2019-11-29 02:36:00']"
西歐新竹中華加油站(多站),0223bc68-ec01-4762-8070-b70cfce4199d,新竹市東區中華路二段59號(近新竹高工),已啟用,24.808151,120.981899,24HR,50 ,['2022-05-31 23:16:00 ~ 更改 GPS 位置'],"['2021-05-25 09:50:00 ~ 2021-05-27 18:00:00', '2021-05-25 09:50:00 ~ 2021-05-27 18:00:00', '2021-05-25 09:50:00 ~ 2021-05-27 18:00:00', '2021-05-25 09:50:00 ~ 2021-05-27 18:00:00', '2021-05-25 09:50:00 ~ 2021-05-27 18:00:00', '2021-05-25 09:50:00 ~ 2021-05-27 18:00:00', '2021-05-25 09:50:00 ~ 2021-05-27 18:00:00', '2021-05-25 09:50:00 ~ 2021-05-27 18:00:00', '2021-05-25 09:50:00 ~ 2021-05-27 18:00:00', '2021-05-25 09:50:00 ~ 2021-05-27 18:00:00']"
摩斯漢堡格致店站(多站),02257059-ab8f-4485-a9bf-ec217883eaea,台北市士林區格致路59號(近格致路/菁山路口),已啟用,25.137979,121.546446,24HR,50 ,"['2020-12-09 17:41:00 ~ 新增建置中狀態為 100 (即將啟用)', '2020-12-16 14:21:00 ~ 啟用', '2022-05-31 23:16:00 ~ 更改 GPS 位置']","['2021-01-11 10:30:00 ~ 2021-01-11 15:30:00', '2021-01-11 10:30:00 ~ 2021-01-11 15:30:00', '2021-01-11 10:30:00 ~ 2021-01-11 15:30:00', '2021-01-11 10:30:00 ~ 2021-01-11 15:30:00', '2021-01-11 10:30:00 ~ 2021-01-11 15:30:00', '2021-01-11 10:30:00 ~ 2021-01-11 15:30:00', '2021-01-11 10:30:00 ~ 2021-01-11 15:30:00']"
新北市石碇區公所站,023712ab-8c51-4e79-a5e2-bb5a25f5c862,新北市石碇區碇坪路一段37號(近石碇區公所),已啟用,24.991437,121.658121,24HR,18 ,"['2018-11-23 17:40:00 ~ 新增建置中', '2018-12-03 01:35:00 ~ 狀態變更為 100 (即將啟用)', '2018-12-07 13:15:00 ~ 啟用', '2022-05-31 23:16:00 ~ 更改 GPS 位置']","['2019-12-02 14:37:00 ~ 2019-12-03 14:37:00', '2019-11-22 15:35:00 ~ 2019-11-23 15:35:00', '2019-11-11 14:19:00 ~ 2019-11-12 14:19:00', '2019-11-01 10:45:00 ~ 2019-11-01 14:00:00', '2019-10-28 13:59:00 ~ 2019-10-29 13:59:00', '2019-09-10 14:07:00 ~ 2019-09-11 14:07:00', '2019-08-26 02:37:00 ~ 2019-08-27 02:37:00', '2019-08-19 15:36:00 ~ 2019-08-20 15:36:00', '2019-07-29 02:30:00 ~ 2019-07-30 02:30:00', '2019-07-10 19:23:00 ~ 2019-07-11 19:23:00']"
桃園市楊梅埔心車站後站停車場站,02483fed-bad1-43e0-aae9-d11458183882,桃園市楊梅區楊梅市梅獅路一段87巷(近埔心火車站後站),已啟用,24.919665,121.182955,24HR,24 ,[],[]
全聯屏東南州店站,024e44e7-03aa-44bb-bb71-28ce075eff6f,屏東縣南州鄉人和路1-2，1-3號(近南州郵局屏東56支局 ),已啟用,22.489626,120.511703,24HR,14 ,"['2018-11-27 12:05:00 ~ 狀態變更為 100 (即將啟用)', '2018-12-03 11:50:00 ~ 啟用', '2022-05-31 23:16:00 ~ 更改 GPS 位置']","['2021-03-09 11:54:00 ~ 2021-03-10 18:00:00', '2021-03-09 11:54:00 ~ 2021-03-10 18:00:00', '2021-03-09 11:54:00 ~ 2021-03-10 18:00:00', '2021-03-09 11:54:00 ~ 2021-03-10 18:00:00', '2021-03-09 11:54:00 ~ 2021-03-10 18:00:00', '2021-03-09 11:54:00 ~ 2021-03-10 18:00:00', '2021-03-09 11:54:00 ~ 2021-03-10 18:00:00', '2021-03-09 11:54:00 ~ 2021-03-10 18:00:00', '2021-03-09 11:54:00 ~ 2021-03-10 18:00:00', '2021-03-09 11:54:00 ~ 2021-03-10 18:00:00']"
全聯南投集集店站,025f5213-7e06-4ae5-8e71-eae84579ca37,南投縣集集鎮民生路9-21號(近民生路/民生五街口),已啟用,23.82785,120.79372,24HR,20 ,"['2018-09-07 13:00:00 ~ 更改地址', '2018-11-29 19:40:00 ~ 狀態變更為 100 (即將啟用)', '2018-12-07 11:35:00 ~ 啟用', '2019-02-12 21:05:00 ~ 更改 GPS 位置', '2020-11-13 12:36:00 ~ 更改地址敘述']","['2021-08-07 10:03:00 ~ 2021-08-08 10:03:00', '2020-06-14 16:51:00 ~ 2020-06-15 16:51:00', '2020-02-03 12:05:00 ~ 2020-02-04 12:05:00', '2019-12-23 14:00:00 ~ 2019-12-24 14:00:00', '2019-11-22 14:04:00 ~ 2019-11-23 14:04:00', '2019-10-23 13:45:00 ~ 2019-10-24 13:45:00', '2019-10-23 10:26:00 ~ 2019-10-24 10:26:00', '2019-08-24 12:51:00 ~ 2019-08-25 12:51:00', '2019-08-22 14:23:00 ~ 2019-08-23 14:23:00', '2019-08-20 02:31:00 ~ 2019-08-21 02:31:00']"
全聯竹山集山店站,027d6fad-6ec8-4b85-8d6f-0b2f3dc587cb,南投縣竹山鎮集山路三段227號(近集山路三段/集山路三段301巷),已啟用,23.763265,120.700597,24HR,18 ,"['2018-08-23 10:25:00 ~ 新增建置中', '2018-08-24 16:40:00 ~ 更改 GPS 位置', '2018-11-29 19:40:00 ~ 狀態變更為 100 (即將啟用)', '2018-12-07 11:35:00 ~ 啟用', '2022-05-31 23:16:00 ~ 更改 GPS 位置']","['2021-05-13 15:30:00 ~ 2021-05-13 18:30:00', '2021-02-05 15:00:00 ~ 2021-02-05 18:00:00', '2021-02-05 15:00:00 ~ 2021-02-05 18:00:00', '2021-02-05 15:00:00 ~ 2021-02-05 18:00:00', '2021-02-05 15:00:00 ~ 2021-02-05 18:00:00', '2020-10-06 19:23:00 ~ 2020-10-07 19:23:00', '2020-10-06 19:23:00 ~ 2020-10-07 19:23:00', '2020-10-06 19:23:00 ~ 2020-10-07 19:23:00', '2020-10-06 19:23:00 ~ 2020-10-07 19:23:00', '2020-09-08 15:36:00 ~ 2020-09-09 15:36:00']"
新北市永和國光路站(多站),0280eaf8-eb14-4d9e-bcb8-ebd4eb2675a9,新北市永和區國光路27號對面(近新北市立圖書館永和分館),建置中(其他狀態100),25.008443,121.51958,24HR, ,[],[]
Gogoro 蘆洲中原門市店站,02a4550c-6abe-43ec-81db-1eae9c6adabc,新北市蘆洲區中原路1號(近中原路/長榮路交叉口),已啟用,25.083592,121.461656,24HR,24 ,"['2022-04-11 21:26:00 ~ 新增建置中狀態為 100 (即將啟用)', '2022-05-31 23:16:00 ~ 更改 GPS 位置']",[]
Gogoro 鳳山五甲門市站,02aa6b84-40b0-4ac2-adbc-7b75a92ca426,高雄市鳳山區五甲一路112號(近五甲一路/五甲一路104巷),已啟用,22.620788,120.356744,24HR,28 ,"['2018-10-02 10:35:00 ~ 新增建置中', '2018-10-08 10:15:00 ~ 狀態變更為 100 (即將啟用)', '2018-10-16 11:40:00 ~ 啟用', '2022-05-31 23:16:00 ~ 更改 GPS 位置']","['2021-08-14 16:29:00 ~ 2021-08-15 16:29:00', '2021-08-14 16:29:00 ~ 2021-08-15 16:29:00', '2021-08-06 03:04:00 ~ 2021-08-07 03:04:00', '2021-08-06 03:04:00 ~ 2021-08-07 03:04:00', '2021-08-06 03:04:00 ~ 2021-08-07 03:04:00', '2021-08-06 03:04:00 ~ 2021-08-07 03:04:00', '2021-08-06 03:04:00 ~ 2021-08-07 03:04:00', '2021-06-24 10:30:00 ~ 2021-06-25 18:00:00', '2021-06-24 10:30:00 ~ 2021-06-25 18:00:00', '2021-06-24 10:30:00 ~ 2021-06-25 18:00:00']"
南投縣南投市公所站(多站),02b38fdc-eaaa-467f-830a-e28b8bf3c347,南投縣南投市玉井街5號(近大同街/玉井街口),已啟用,23.911492,120.686976,24HR,52 ,[],[]
西歐桃園中山加油站,03105b4b-2ba7-4bb9-9cb5-802a37533107,桃園市桃園區中山路1536號(近衛生福利部桃園醫院),已啟用,24.975859,121.26598,24HR,34 ,['2022-05-31 23:16:00 ~ 更改 GPS 位置'],"['2021-08-16 10:13:00 ~ 2021-08-17 10:13:00', '2021-08-16 08:33:00 ~ 2021-08-17 08:33:00', '2021-08-16 08:33:00 ~ 2021-08-17 08:33:00', '2021-08-06 09:44:00 ~ 2021-08-07 09:44:00', '2021-08-06 08:52:00 ~ 2021-08-07 08:52:00', '2021-07-27 15:58:00 ~ 2021-07-28 15:58:00', '2021-07-27 15:58:00 ~ 2021-07-28 15:58:00', '2021-07-27 15:58:00 ~ 2021-07-28 15:58:00', '2021-06-10 09:45:00 ~ 2021-06-10 11:25:00', '2021-06-10 09:45:00 ~ 2021-06-10 11:25:00']"
新北市中和公園站(多站),0329769c-c051-42ac-8879-e6b64e54c7c3,新北市中和區安平路194號對面(近安平路/安平路198巷口),已啟用,24.999397,121.513233,24HR,96 ,[],[]
全聯台中北屯店站,034991b4-1b5d-46d6-b96e-f23d43ca5e8f,台中市北屯區北屯路289-10號(近北屯路/北屯路212巷口),已啟用,24.167673,120.695583,24HR,24 ,"['2019-08-22 11:10:00 ~ 新增建置中', '2019-09-19 16:55:00 ~ 狀態變更為 100 (即將啟用)', '2019-09-26 11:10:00 ~ 啟用']","['2021-03-23 10:00:00 ~ 2021-03-23 18:00:00', '2021-03-23 10:00:00 ~ 2021-03-23 18:00:00', '2021-03-23 10:00:00 ~ 2021-03-23 18:00:00', '2021-03-23 10:00:00 ~ 2021-03-23 18:00:00', '2021-03-23 10:00:00 ~ 2021-03-23 18:00:00', '2021-03-23 10:00:00 ~ 2021-03-23 18:00:00', '2021-03-23 10:00:00 ~ 2021-03-23 18:00:00', '2021-03-23 10:00:00 ~ 2021-03-23 18:00:00', '2021-03-23 10:00:00 ~ 2021-03-23 18:00:00', '2021-03-23 10:00:00 ~ 2021-03-23 18:00:00']"
新北市三峽國小地下停車場站(多站),03570d4f-2aa8-49d1-9fa7-bedd0234eaac,新北市三峽區中山路16號(近三峽國小停車場入口處),已啟用,24.934933,121.367467,24HR,24 ,"['2020-06-17 03:35:00 ~ 新增建置中狀態為 100 (即將啟用)', '2020-07-13 15:56:00 ~ 啟用', '2022-05-31 23:16:00 ~ 更改 GPS 位置']","['2021-07-09 09:50:00 ~ 2021-07-09 11:30:00', '2021-07-09 09:50:00 ~ 2021-07-09 11:30:00', '2021-01-19 10:10:00 ~ 2021-01-19 11:10:00', '2020-10-22 21:45:00 ~ 2020-10-23 21:45:00', '2020-10-22 21:45:00 ~ 2020-10-23 21:45:00', '2020-09-08 10:21:00 ~ 2020-09-09 10:21:00']"
新北市養工處新莊思源路站(多站),037bf074-5b5b-4d91-944f-2c3020a9b042,新北市新莊區思源路與昌智路交叉口(近思源路/昌智路交叉口),已啟用,25.056104,121.459658,24HR,68 ,"['2020-11-10 13:41:00 ~ 新增建置中狀態為 100 (即將啟用)', '2021-01-27 17:31:00 ~ 啟用']",[]
臺中市廣停二停車場站(多站),03a1266a-6828-465d-9130-3978de240dd1,台中市烏日區三榮二路、三榮路一段(近三榮二路/三榮一路路口),已啟用,24.106058,120.608706,24HR,40 ,"['2019-08-09 09:55:00 ~ 新增建置中', '2019-08-22 01:35:00 ~ 更改站名', '2019-11-01 17:45:00 ~ 狀態變更為 100 (即將啟用)', '2019-12-10 13:40:00 ~ 啟用', '2019-12-24 13:05:00 ~ 更改地址', '2022-05-31 23:16:00 ~ 更改 GPS 位置']","['2021-06-17 12:00:00 ~ 2021-06-18 18:00:00', '2021-06-17 12:00:00 ~ 2021-06-18 18:00:00', '2021-06-17 12:00:00 ~ 2021-06-18 18:00:00', '2021-06-17 12:00:00 ~ 2021-06-18 18:00:00', '2021-06-17 12:00:00 ~ 2021-06-18 18:00:00', '2021-06-17 12:00:00 ~ 2021-06-18 18:00:00', '2021-06-17 12:00:00 ~ 2021-06-18 18:00:00', '2021-06-17 12:00:00 ~ 2021-06-18 18:00:00', '2021-06-17 12:00:00 ~ 2021-06-18 18:00:00', '2021-06-17 12:00:00 ~ 2021-06-18 18:00:00']"
新北市六張公園站(多站),03aa93cc-93d7-4e52-863f-197e1b8d0d60,新北市三重區六張街78號(近新北市三重六張公共托育中心),已啟用,25.069906,121.493912,24HR,52 ,[],[]
中油蘇澳加油站(多站),03b4a5ef-89e6-4e87-b61b-6ca6c2dfd86e,宜蘭縣蘇澳鎮中山路一段196號(近中山路一段/中原路口),已啟用,24.59617,121.847155,24HR,38 ,"['2018-12-25 13:20:00 ~ 新增建置中', '2019-01-02 12:25:00 ~ 狀態變更為 100 (即將啟用)', '2019-01-18 09:55:00 ~ 啟用', '2021-09-11 12:01:00 ~ 更改站名', '2022-05-31 23:16:00 ~ 更改 GPS 位置']",[]
全家沙鹿正英店站(多站),03d98f8a-6931-4a54-bffa-c0c55a2ff107,台中市沙鹿區正英路399號(近正英路/北勢東路口),已啟用,24.20982,120.580386,24HR,52 ,"['2022-04-07 12:16:00 ~ 新增建置中狀態為 100 (即將啟用)', '2022-05-31 23:16:00 ~ 更改 GPS 位置']",[]
中油八里加油站,0406ef96-5e86-4857-bf98-b5f2fa4a3862,新北市八里區中山路一段1號(近中山路一段/中華路一段口),已啟用,25.158857,121.42297,24HR,30 ,"['2018-12-25 17:20:00 ~ 新增建置中', '2019-01-18 14:40:00 ~ 狀態變更為 100 (即將啟用)', '2019-01-28 13:20:00 ~ 啟用']","['2020-08-28 13:05:00 ~ 2020-08-28 15:00:00', '2020-02-12 15:47:00 ~ 2020-02-13 15:47:00', '2020-02-11 15:17:00 ~ 2020-02-12 15:17:00', '2020-01-03 15:09:00 ~ 2020-01-04 15:09:00', '2019-12-06 15:38:00 ~ 2019-12-07 15:38:00', '2019-11-20 16:46:00 ~ 2019-11-21 16:46:00', '2019-10-28 15:54:00 ~ 2019-10-29 15:54:00', '2019-10-09 17:18:00 ~ 2019-10-10 17:18:00', '2019-10-09 17:07:00 ~ 2019-10-10 17:07:00', '2019-10-09 16:50:00 ~ 2019-10-10 16:50:00']"
全聯平鎮環南店站,0413d153-4be1-485c-8e8e-ddcffa980caf,桃園市平鎮區環南路三段69號(近環南路三段/德育路二段交岔口),已啟用,24.940482,121.218551,24HR,20 ,['2022-05-31 23:16:00 ~ 更改 GPS 位置'],"['2021-08-05 14:30:00 ~ 2021-08-05 16:30:00', '2021-08-05 14:30:00 ~ 2021-08-05 16:30:00', '2021-08-05 14:30:00 ~ 2021-08-05 16:30:00', '2021-02-10 14:15:00 ~ 2021-02-10 15:45:00', '2021-01-22 23:40:00 ~ 2021-01-25 18:00:00', '2021-01-22 23:40:00 ~ 2021-01-25 18:00:00', '2021-01-22 23:40:00 ~ 2021-01-25 18:00:00', '2021-01-22 23:40:00 ~ 2021-01-25 18:00:00', '2021-01-22 23:40:00 ~ 2021-01-25 18:00:00', '2021-01-22 23:40:00 ~ 2021-01-25 18:00:00']"
7-ELEVEN 聖華店站,041c8d31-700d-45aa-9045-9655e3e951dd,新竹市北區西濱路一段399號(近西濱路一段與興濱路口),已啟用,24.84112,120.93236,24HR,34 ,"['2019-10-05 18:55:00 ~ 新增建置中', '2019-11-19 23:30:00 ~ 狀態變更為 100 (即將啟用)', '2019-11-29 11:10:00 ~ 啟用']","['2021-07-02 15:00:00 ~ 2021-07-02 18:00:00', '2021-07-02 15:00:00 ~ 2021-07-02 18:00:00', '2021-07-02 15:00:00 ~ 2021-07-02 18:00:00', '2021-07-02 15:00:00 ~ 2021-07-02 18:00:00', '2021-07-02 15:00:00 ~ 2021-07-02 18:00:00', '2021-07-02 15:00:00 ~ 2021-07-02 18:00:00', '2021-07-02 15:00:00 ~ 2021-07-02 18:00:00', '2021-07-02 15:00:00 ~ 2021-07-02 18:00:00', '2021-06-05 18:10:00 ~ 2021-06-07 18:00:00', '2021-06-05 18:10:00 ~ 2021-06-07 18:00:00']"
日月亭廣明二站(多站),0423bb0b-8800-4e94-afb8-31b4d5aa153e,桃園市中壢區廣明路158號旁停車場(近廣明路/廣明路122巷口),已啟用,24.95508,121.21426,24HR,50 ,"['2019-09-27 16:55:00 ~ 新增建置中', '2020-03-17 23:15:00 ~ 更改站名', '2020-03-24 12:30:00 ~ 更改站名', '2020-03-27 12:25:00 ~ 更改站名', '2020-04-09 17:10:00 ~ 狀態變更為 100 (即將啟用)', '2020-09-16 16:06:00 ~ 啟用', '2020-10-14 18:31:00 ~ 更改地址', '2021-05-24 10:11:00 ~ 更改地址']","['2021-03-25 12:40:00 ~ 2021-03-25 13:40:00', '2020-10-25 10:50:00 ~ 2020-10-26 10:50:00', '2020-10-25 10:50:00 ~ 2020-10-26 10:50:00']"
全聯白河國泰店站,0442b9c7-308e-4137-bca8-73515232aadd,台南市白河區國泰路127號(近國泰路/民安路路口),已啟用,23.348053,120.412931,24HR,18 ,"['2018-10-19 18:15:00 ~ 狀態變更為 100 (即將啟用)', '2018-10-31 11:20:00 ~ 啟用', '2019-02-13 09:55:00 ~ 更改 GPS 位置', '2019-02-13 10:15:00 ~ 更改 GPS 位置', '2022-05-31 23:16:00 ~ 更改 GPS 位置']","['2020-04-27 20:08:00 ~ 2021-07-14 20:08:00', '2020-04-27 20:08:00 ~ 2021-07-14 20:08:00', '2020-04-27 20:08:00 ~ 2021-07-14 20:08:00', '2020-04-27 20:08:00 ~ 2021-07-14 20:08:00', '2020-04-27 20:08:00 ~ 2021-07-14 20:08:00', '2020-04-27 20:08:00 ~ 2021-07-14 20:08:00', '2020-04-27 20:08:00 ~ 2021-07-14 20:08:00', '2020-04-27 20:08:00 ~ 2021-07-14 20:08:00', '2020-04-27 20:08:00 ~ 2021-07-14 20:08:00', '2020-04-27 20:08:00 ~ 2021-07-14 20:08:00']"
eReady 新莊思源店站(多站),0445e53d-acce-45ea-810a-c9ab9475fb6a,新北市新莊區思源路245號(近思源路/思源路241巷口),已啟用,25.047207,121.459666,24HR,42 ,"['2020-08-03 17:56:00 ~ 新增建置中狀態為 100 (即將啟用)', '2020-08-11 15:16:00 ~ 啟用', '2022-05-31 23:16:00 ~ 更改 GPS 位置']","['2021-07-28 03:33:00 ~ 2021-07-29 03:33:00', '2021-07-28 03:33:00 ~ 2021-07-29 03:33:00', '2021-07-07 00:30:00 ~ 2021-07-07 07:00:00', '2021-07-07 00:30:00 ~ 2021-07-07 07:00:00', '2021-07-07 00:30:00 ~ 2021-07-07 07:00:00', '2021-07-07 00:30:00 ~ 2021-07-07 07:00:00', '2021-07-07 00:30:00 ~ 2021-07-07 07:00:00', '2021-07-07 00:30:00 ~ 2021-07-07 07:00:00', '2021-07-07 00:30:00 ~ 2021-07-07 07:00:00', '2021-07-07 00:30:00 ~ 2021-07-07 07:00:00']"
全聯新竹武陵店站,04764925-72ba-487a-9e7b-936a8a37bf6e,新竹市北區武陵路157-1號(近武陵路/湳中街口),已啟用,24.820544,120.967768,24HR,16 ,"['2018-12-12 21:55:00 ~ 移除', '2018-12-14 17:40:00 ~ 啟用']","['2021-07-28 12:00:00 ~ 2021-07-28 13:30:00', '2021-06-03 18:00:00 ~ 2021-06-03 19:00:00', '2021-04-21 11:35:00 ~ 2021-04-21 18:00:00', '2021-03-24 13:00:00 ~ 2021-03-24 17:00:00', '2021-03-24 13:00:00 ~ 2021-03-24 17:00:00', '2021-03-24 13:00:00 ~ 2021-03-24 17:00:00', '2021-03-24 13:00:00 ~ 2021-03-24 17:00:00', '2021-03-24 13:00:00 ~ 2021-03-24 17:00:00', '2020-10-27 18:33:00 ~ 2020-10-29 18:33:00', '2020-10-27 18:33:00 ~ 2020-10-29 18:33:00']"
Gogoro 蘆洲三民服務中心站,0484b938-a72f-44d2-b8cf-03500189b139,新北市蘆洲區三民路140號(近國立空中大學),已啟用,25.087825,121.470657,24HR,30 ,['2022-05-31 23:16:00 ~ 更改 GPS 位置'],"['2021-08-16 20:13:00 ~ 2021-08-17 20:13:00', '2021-08-16 20:13:00 ~ 2021-08-17 20:13:00', '2021-08-03 13:50:00 ~ 2021-08-04 13:50:00', '2021-08-03 13:50:00 ~ 2021-08-04 13:50:00', '2020-12-14 09:06:00 ~ 2020-12-15 09:06:00', '2020-12-14 09:06:00 ~ 2020-12-15 09:06:00', '2020-11-20 08:51:00 ~ 2020-11-21 08:51:00', '2020-11-20 08:51:00 ~ 2020-11-21 08:51:00', '2020-11-20 08:51:00 ~ 2020-11-21 08:51:00', '2020-11-20 08:51:00 ~ 2020-11-21 08:51:00']"
Gogoro 台中公益門市站,0498c271-fdb7-4f9f-8ccd-0a3e67e2a5ff,台中市西區公益路201號(近公益路/中美街口),已啟用,24.150771,120.660591,24HR,24 ,"['2020-10-06 18:01:00 ~ 新增建置中狀態為 100 (即將啟用)', '2022-01-17 16:11:00 ~ 更改 GPS 位置', '2022-05-31 23:16:00 ~ 更改 GPS 位置']","['2021-08-16 13:54:00 ~ 2021-08-17 13:54:00', '2021-08-16 13:54:00 ~ 2021-08-17 13:54:00', '2021-04-15 10:30:00 ~ 2021-04-15 18:00:00', '2021-04-15 10:30:00 ~ 2021-04-15 18:00:00', '2021-04-15 10:30:00 ~ 2021-04-15 18:00:00', '2020-10-17 16:02:00 ~ 2020-10-20 16:02:00', '2020-10-17 16:02:00 ~ 2020-10-20 16:02:00', '2020-10-17 16:02:00 ~ 2020-10-20 16:02:00', '2020-10-17 16:02:00 ~ 2020-10-20 16:02:00', '2020-10-17 16:02:00 ~ 2020-10-20 16:02:00']"
新北市四維公園地下停車場站,04c0b589-4c4d-4d6e-8f2c-5b1eb1046c4c,新北市板橋區四維路177巷3弄11號對面(近四維公園),已啟用,25.025689,121.463922,24HR,24 ,"['2020-07-03 17:00:00 ~ 新增建置中狀態為 100 (即將啟用)', '2020-07-14 13:36:00 ~ 更改 GPS 位置', '2020-09-02 14:21:00 ~ 啟用', '2022-05-31 23:16:00 ~ 更改 GPS 位置']","['2021-07-27 09:24:00 ~ 2021-07-29 09:24:00', '2021-07-27 09:24:00 ~ 2021-07-29 09:24:00', '2021-07-27 09:24:00 ~ 2021-07-29 09:24:00', '2021-07-27 09:24:00 ~ 2021-07-29 09:24:00', '2021-07-27 09:24:00 ~ 2021-07-29 09:24:00', '2021-07-27 09:24:00 ~ 2021-07-29 09:24:00', '2021-07-27 09:24:00 ~ 2021-07-29 09:24:00', '2021-07-27 09:24:00 ~ 2021-07-29 09:24:00', '2021-07-27 09:24:00 ~ 2021-07-29 09:24:00', '2021-07-27 09:24:00 ~ 2021-07-29 09:24:00']"
台電楓港服務所站,04cb6bbd-8699-4472-bfad-c210f5943317,屏東縣枋山鄉德隆12號(近楓港國小),已啟用,22.190412,120.691541,24HR,24 ,"['2021-02-08 17:26:00 ~ 新增建置中', '2021-08-12 10:11:00 ~ 啟用', '2021-08-12 10:36:00 ~ 更改地址敘述', '2022-05-31 23:16:00 ~ 更改 GPS 位置']","['2021-08-15 09:18:00 ~ 2021-08-16 09:18:00', '2021-08-15 09:18:00 ~ 2021-08-16 09:18:00']"
臺鐵竹中車站(多站),04def847-0fb6-4879-9966-cbc7174363d9,新竹縣竹東鎮竹中路145號(近竹中火車站停車場),已啟用,24.781093,121.031859,24HR,52 ,"['2021-09-10 09:16:00 ~ 新增建置中', '2021-09-15 09:51:00 ~ 狀態變更為 100 (即將啟用)', '2021-11-10 10:26:00 ~ 啟用', '2022-05-31 23:16:00 ~ 更改 GPS 位置']",[]
中油荒野加油站,04f9a0a1-2179-46e0-b740-6da67dc5f153,台東縣太麻里鄉美和村美和路2之2號(近台9線/花東海岸公路口),已啟用,22.691188,121.046966,24HR,24 ,[],[]
新北市福營休閒廣場站(多站),0504b14f-570a-431a-9e37-0ca13adc8d1b,新北市新莊區富國路176巷(近鴻金寶麻吉影城),已啟用,25.023881,121.424266,24HR,48 ,['2022-05-31 23:16:00 ~ 更改 GPS 位置'],[]
中油興化加油站,052cd8ca-efc8-4b21-8d00-09402845b930,新北市新莊區復興路三段117號(近復興路三段/化成路口),已啟用,25.044648,121.464616,24HR,22 ,"['2021-09-30 13:36:00 ~ 新增建置中狀態為 100 (即將啟用)', '2021-12-07 12:36:00 ~ 啟用', '2022-05-31 23:16:00 ~ 更改 GPS 位置']",[]
中油大城加油站,054fe091-06c4-4602-bb21-ba1c712272cb,彰化縣大城鄉魚寮路50號(近大城鄉玄天宮),已啟用,23.86391,120.329561,24HR,20 ,"['2018-12-25 17:00:00 ~ 新增建置中', '2019-01-09 16:35:00 ~ 狀態變更為 100 (即將啟用)', '2019-01-25 14:30:00 ~ 啟用', '2020-06-12 10:35:00 ~ 將已啟用改回建置中', '2020-06-17 03:35:00 ~ 啟用', '2022-05-31 23:16:00 ~ 更改 GPS 位置']","['2020-06-12 09:53:00 ~ 2020-06-16 09:53:00', '2020-06-12 15:00:00 ~ 2020-06-15 18:00:00', '2020-01-03 14:35:00 ~ 2020-01-04 14:35:00', '2020-01-03 14:22:00 ~ 2020-01-04 14:22:00', '2019-12-27 11:47:00 ~ 2019-12-28 11:47:00', '2019-11-18 11:39:00 ~ 2019-11-19 11:39:00', '2019-11-06 12:09:00 ~ 2019-11-07 12:09:00', '2019-10-22 15:57:00 ~ 2019-10-23 15:57:00', '2019-09-23 15:07:00 ~ 2019-09-24 15:07:00', '2019-09-02 16:54:00 ~ 2019-09-03 16:54:00']"
HiLife 三民鼎金店站,0550abf9-0ec4-45f9-975c-87d2f3e19e6b,高雄市三民區鼎中路139號(近鼎中路/金山路口),已啟用,22.661849,120.319036,24HR,16 ,['2022-05-31 23:16:00 ~ 更改 GPS 位置'],"['2021-08-07 09:03:00 ~ 2021-08-18 09:03:00', '2021-08-07 09:03:00 ~ 2021-08-18 09:03:00', '2021-08-07 09:03:00 ~ 2021-08-18 09:03:00', '2021-08-07 09:03:00 ~ 2021-08-18 09:03:00', '2021-08-07 09:03:00 ~ 2021-08-18 09:03:00', '2021-08-07 09:03:00 ~ 2021-08-18 09:03:00', '2021-08-07 09:03:00 ~ 2021-08-18 09:03:00', '2021-08-07 09:03:00 ~ 2021-08-18 09:03:00', '2021-08-07 09:03:00 ~ 2021-08-18 09:03:00', '2021-08-07 09:03:00 ~ 2021-08-18 09:03:00']"
Gogoro 中和員山門市站(多站),056274ae-4afc-49b0-9194-c9cab8e33e58,新北市中和區員山路316號(近員山路/員山路314巷口),已啟用,25.003016,121.481292,24HR,44 ,"['2018-08-12 15:25:00 ~ 狀態變更為 100 (即將啟用)', '2018-08-16 15:15:00 ~ 啟用', '2018-08-16 18:35:00 ~ 更改 GPS 位置', '2022-05-31 23:16:00 ~ 更改 GPS 位置']","['2021-08-17 17:43:00 ~ 2021-08-18 17:43:00', '2021-08-05 18:57:00 ~ 2021-08-06 18:57:00', '2021-08-05 18:57:00 ~ 2021-08-06 18:57:00', '2021-05-13 15:00:00 ~ 2021-05-14 18:00:00', '2021-05-13 15:00:00 ~ 2021-05-14 18:00:00', '2021-05-13 15:00:00 ~ 2021-05-14 18:00:00', '2021-05-13 15:00:00 ~ 2021-05-14 18:00:00', '2021-05-13 15:00:00 ~ 2021-05-14 18:00:00', '2021-05-13 15:00:00 ~ 2021-05-14 18:00:00', '2021-05-13 15:00:00 ~ 2021-05-14 18:00:00']"
新竹士林市場站,057aa3a5-99f1-4e7a-95fb-ec0b7d788154,新竹市北區士林里東大路二段477號(近東大路二段與境福街口),已啟用,24.82087,120.96016,24HR,24 ,"['2020-04-29 11:45:00 ~ 新增建置中狀態為 100 (即將啟用)', '2020-05-15 13:05:00 ~ 啟用', '2020-05-25 15:45:00 ~ 更改 GPS 位置', '2020-05-25 16:05:00 ~ 更改 GPS 位置', '2020-05-26 14:45:00 ~ 更改 GPS 位置', '2020-05-26 15:45:00 ~ 更改 GPS 位置', '2020-05-26 16:45:00 ~ 更改 GPS 位置', '2022-05-31 23:16:00 ~ 更改 GPS 位置']","['2021-08-11 10:30:00 ~ 2021-08-11 15:30:00', '2021-08-11 10:30:00 ~ 2021-08-11 15:30:00', '2021-08-11 10:30:00 ~ 2021-08-11 15:30:00', '2021-08-11 10:30:00 ~ 2021-08-11 15:30:00', '2021-08-11 10:30:00 ~ 2021-08-11 15:30:00', '2021-08-11 10:30:00 ~ 2021-08-11 15:30:00', '2021-08-11 10:30:00 ~ 2021-08-11 15:30:00', '2021-06-02 14:25:00 ~ 2021-06-02 16:00:00', '2021-06-02 14:25:00 ~ 2021-06-02 16:00:00', '2021-06-02 14:25:00 ~ 2021-06-02 16:00:00']"
HiLife 中壢桃合店站,059fe8ef-e907-417b-bb46-773bdd6868bf,桃園市中壢區合圳北路二段47號(近合圳北路二段/內定八街交叉口),已啟用,24.997162,121.244508,24HR,34 ,"['2019-09-19 00:20:00 ~ 新增建置中', '2019-10-23 21:00:00 ~ 狀態變更為 100 (即將啟用)', '2019-11-01 12:45:00 ~ 啟用', '2022-05-31 23:16:00 ~ 更改 GPS 位置']","['2021-03-02 09:00:00 ~ 2021-03-31 15:00:00', '2021-03-02 09:00:00 ~ 2021-03-31 15:00:00', '2021-03-02 09:00:00 ~ 2021-03-31 15:00:00', '2021-03-02 09:00:00 ~ 2021-03-31 15:00:00', '2021-03-02 09:00:00 ~ 2021-03-31 15:00:00', '2021-03-02 09:00:00 ~ 2021-03-31 15:00:00', '2021-03-02 09:00:00 ~ 2021-03-31 15:00:00', '2021-03-02 09:00:00 ~ 2021-03-31 15:00:00', '2021-03-02 09:00:00 ~ 2021-03-31 15:00:00', '2021-03-02 09:00:00 ~ 2021-03-31 15:00:00']"
淡江大學五虎崗停車場站(多站),05a8fa92-bcd5-4c4d-82b9-b84ccc74e260,新北市淡水區英專路151號(五虎崗機車停車場出口處),已啟用,25.175233,121.453163,24HR,48 ,"['2019-09-19 01:00:00 ~ 新增建置中', '2019-10-31 23:25:00 ~ 狀態變更為 100 (即將啟用)', '2019-11-08 13:35:00 ~ 啟用', '2019-11-22 09:50:00 ~ 更改地址', '2019-11-28 16:25:00 ~ 更改地址', '2022-05-31 23:16:00 ~ 更改 GPS 位置']",[]
臺北市金湖路站(多站),05af4968-c9e1-4140-be32-844f62fd2d70,臺北市內湖區金湖路239號旁(近金湖路/康寧路二段口),建置中(其他狀態100),25.07587,121.601083,24HR,24 ,[],[]
華泰電子EMS站(多站),05b3074f-2b57-4293-b715-382c21f494ab,高雄市楠梓區東三街16號(近東三街/經二路),已啟用,22.721327,120.307546,24HR,50 ,[],[]
全聯永康大橋店站,05b5e3ce-f21c-4e02-abea-39a36320f18b,台南市永康區大橋二街218號(近大橋二街/大橋一街247巷口),已啟用,23.021062,120.230886,24HR,22 ,"['2019-12-26 17:15:00 ~ 新增建置中狀態為 100 (即將啟用)', '2020-01-06 10:35:00 ~ 更改地址', '2020-01-16 11:30:00 ~ 啟用', '2020-03-19 11:50:00 ~ 更改 GPS 位置', '2022-05-31 23:16:00 ~ 更改 GPS 位置']","['2021-08-02 07:28:00 ~ 2021-08-18 07:28:00', '2021-08-02 07:28:00 ~ 2021-08-18 07:28:00', '2021-08-02 07:28:00 ~ 2021-08-18 07:28:00', '2021-08-02 07:28:00 ~ 2021-08-18 07:28:00', '2021-08-02 07:28:00 ~ 2021-08-18 07:28:00', '2021-08-02 07:28:00 ~ 2021-08-18 07:28:00', '2021-08-02 07:28:00 ~ 2021-08-18 07:28:00', '2021-08-02 07:28:00 ~ 2021-08-18 07:28:00', '2021-08-02 07:28:00 ~ 2021-08-18 07:28:00', '2021-08-02 07:28:00 ~ 2021-08-18 07:28:00']"
中油仁武加油站,05b5f6f6-29f7-4add-b322-e7a1245ac230,高雄市仁武區鳳仁路282號(近仁武運動公園),已啟用,22.703342,120.344502,24HR,22 ,"['2020-07-22 01:16:00 ~ 移除', '2020-09-30 11:46:00 ~ 新增建置中', '2020-10-26 16:26:00 ~ 更改站名', '2020-12-07 10:36:00 ~ 更改站名']","['2021-07-31 09:40:00 ~ 2021-08-01 09:40:00', '2020-02-21 16:51:00 ~ 2020-02-22 16:51:00', '2020-02-21 16:28:00 ~ 2020-02-22 16:28:00', '2020-02-10 13:53:00 ~ 2020-02-11 13:53:00', '2020-02-06 10:39:00 ~ 2020-02-07 10:39:00', '2020-01-31 15:26:00 ~ 2020-02-01 15:26:00', '2020-01-28 10:52:00 ~ 2020-01-29 10:52:00', '2020-01-17 12:03:00 ~ 2020-01-18 12:03:00', '2020-01-16 14:39:00 ~ 2020-01-17 14:39:00', '2020-01-14 14:15:00 ~ 2020-01-15 14:15:00']"
中油美得瑞里加油站,05e00c3a-d200-4b96-b322-165865f97435,花蓮縣瑞穗鄉瑞北村中正北路2段30之25號(近中正北路2段/花東縱谷公路口),已啟用,23.515231,121.376592,24HR,24 ,"['2021-10-17 19:36:00 ~ 新增建置中狀態為 100 (即將啟用)', '2021-11-03 14:36:00 ~ 更改 GPS 位置', '2021-11-03 17:51:00 ~ 啟用', '2022-05-31 23:16:00 ~ 更改 GPS 位置']",[]
Gogoro 內湖西湖服務中心站,05e7557e-3fbd-452a-b310-e51318f44876,台北市內湖區內湖路一段411巷19弄17號(近麗山國小),已啟用,25.082398,121.57188,24HR,20 ,"['2020-06-12 10:05:00 ~ 將已啟用改回建置中', '2020-06-21 17:24:00 ~ 更改站名', '2022-05-31 23:16:00 ~ 更改 GPS 位置']","['2021-07-31 18:10:00 ~ 2021-08-01 18:10:00', '2021-07-31 18:10:00 ~ 2021-08-01 18:10:00', '2020-12-28 17:00:00 ~ 2020-12-29 18:00:00', '2020-12-28 17:00:00 ~ 2020-12-29 18:00:00', '2020-12-28 17:00:00 ~ 2020-12-29 18:00:00', '2020-12-28 17:00:00 ~ 2020-12-29 18:00:00', '2020-12-28 17:00:00 ~ 2020-12-29 18:00:00', '2020-12-28 17:00:00 ~ 2020-12-29 18:00:00', '2020-12-28 17:00:00 ~ 2020-12-29 18:00:00', '2020-12-28 17:00:00 ~ 2020-12-29 18:00:00']"
7-ELEVEN 宮前店站,0617f457-2005-4606-9155-c52ccf9dd397,嘉義縣新港鄉宮前村新民路24鄰252號附1(近新民路/嘉民路口),已啟用,23.555832,120.354365,24HR,34 ,"['2020-05-07 17:55:00 ~ 新增建置中狀態為 100 (即將啟用)', '2020-05-08 09:50:00 ~ 將狀態 100 改回建置中', '2020-05-15 10:40:00 ~ 狀態變更為 100 (即將啟用)', '2020-05-15 11:25:00 ~ 啟用', '2022-05-31 23:16:00 ~ 更改 GPS 位置']","['2020-10-28 17:51:00 ~ 2020-10-29 17:51:00', '2020-10-28 17:51:00 ~ 2020-10-29 17:51:00', '2020-10-28 17:51:00 ~ 2020-10-29 17:51:00', '2020-10-28 17:51:00 ~ 2020-10-29 17:51:00', '2020-08-09 06:48:00 ~ 2020-08-10 06:48:00', '2020-08-09 06:48:00 ~ 2020-08-10 06:48:00']"
中油明維加油站,061af15b-f527-4147-8885-2c14a39f81d0,台中市大里區大峰路135號(近大峰路/西湖路口),已啟用,24.077081,120.688876,24HR,24 ,[],[]
中油鎮江加油站,0637768e-8a71-4bee-9cee-85a56994f3c3,桃園市平鎮區南平路二段406號(近萊爾富平鎮平德店),已啟用,24.921711,121.194289,24HR,24 ,"['2020-11-02 10:31:00 ~ 新增建置中狀態為 100 (即將啟用)', '2020-11-16 12:16:00 ~ 啟用', '2022-05-31 23:16:00 ~ 更改 GPS 位置']","['2021-06-01 10:00:00 ~ 2021-06-01 18:00:00', '2021-06-01 10:00:00 ~ 2021-06-01 18:00:00', '2021-06-01 10:00:00 ~ 2021-06-01 18:00:00', '2021-06-01 10:00:00 ~ 2021-06-01 18:00:00', '2021-06-01 10:00:00 ~ 2021-06-01 18:00:00', '2021-06-01 10:00:00 ~ 2021-06-01 18:00:00', '2021-06-01 10:00:00 ~ 2021-06-01 18:00:00', '2021-06-01 10:00:00 ~ 2021-06-01 18:00:00', '2021-06-01 10:00:00 ~ 2021-06-01 18:00:00']"
HiLife 彰縣彰花店站,0641f387-20db-4880-8812-7f97bb016a8f,彰化縣花壇鄉中山路一段72號(近中山路一段/中橋街交叉口),已啟用,24.011307,120.552303,24HR,24 ,['2022-05-31 23:16:00 ~ 更改 GPS 位置'],"['2021-08-05 02:42:00 ~ 2021-08-06 02:42:00', '2021-08-05 02:42:00 ~ 2021-08-06 02:42:00', '2021-08-05 02:42:00 ~ 2021-08-06 02:42:00', '2021-08-04 07:16:00 ~ 2021-08-05 07:16:00', '2021-07-30 03:14:00 ~ 2021-07-31 03:14:00', '2021-05-31 22:30:00 ~ 2021-06-01 18:00:00', '2021-05-31 22:30:00 ~ 2021-06-01 18:00:00', '2021-05-31 22:30:00 ~ 2021-06-01 18:00:00', '2021-05-31 22:30:00 ~ 2021-06-01 18:00:00', '2021-05-31 22:30:00 ~ 2021-06-01 18:00:00']"
Gogoro 花蓮中華門市站,06483ea8-1327-414c-a58f-b97a47b82af7,花蓮縣花蓮市中華路266號(近花蓮文化創意產業園區),已啟用,23.975269,121.600223,24HR,36 ,"['2018-09-01 08:25:00 ~ 啟用', '2019-02-25 17:00:00 ~ 更改 GPS 位置', '2019-09-04 16:30:00 ~ 更改站名', '2020-06-21 17:24:00 ~ 更改站名', '2022-05-31 23:16:00 ~ 更改 GPS 位置']","['2021-08-13 11:10:00 ~ 2021-08-14 11:10:00', '2021-08-13 11:10:00 ~ 2021-08-14 11:10:00', '2021-03-19 12:20:00 ~ 2021-03-19 15:00:00', '2021-03-19 12:20:00 ~ 2021-03-19 15:00:00', '2021-03-19 12:20:00 ~ 2021-03-19 15:00:00', '2021-03-19 12:20:00 ~ 2021-03-19 15:00:00', '2020-11-15 17:28:00 ~ 2020-11-16 17:28:00', '2020-11-15 17:28:00 ~ 2020-11-16 17:28:00', '2020-11-15 17:28:00 ~ 2020-11-16 17:28:00', '2020-11-15 11:11:00 ~ 2020-11-16 11:11:00']"
7-ELEVEN 宏旺店站(多站),064cf535-4782-4ea4-8e15-99a002e822a2,南投縣南投市復興路38號(近南投縣政府),已啟用,23.902807,120.688565,24HR,50 ,"['2021-09-10 09:41:00 ~ 新增建置中', '2021-09-14 09:41:00 ~ 狀態變更為 100 (即將啟用)', '2021-09-17 15:16:00 ~ 啟用', '2022-03-28 16:06:00 ~ 更改站名', '2022-05-31 23:16:00 ~ 更改 GPS 位置']",[]
臺中市中華停車場站(多站),06684477-f244-482b-91f2-9f8a67d3c2f5,台中市北區柳川東路四段(中華夜市旁)(近柳川西路/公園路口),已啟用,24.148566,120.677917,24HR,38 ,"['2019-08-09 09:35:00 ~ 新增建置中', '2019-08-21 16:10:00 ~ 更改地址', '2019-08-23 17:00:00 ~ 更改站名', '2019-10-30 23:00:00 ~ 狀態變更為 100 (即將啟用)', '2020-01-06 10:35:00 ~ 更改地址', '2020-04-30 12:15:00 ~ 啟用', '2022-05-31 23:16:00 ~ 更改 GPS 位置']","['2021-04-06 10:00:00 ~ 2021-04-06 18:00:00', '2021-04-06 10:00:00 ~ 2021-04-06 18:00:00', '2021-04-06 10:00:00 ~ 2021-04-06 18:00:00', '2021-04-06 10:00:00 ~ 2021-04-06 18:00:00', '2021-04-06 10:00:00 ~ 2021-04-06 18:00:00', '2021-04-06 10:00:00 ~ 2021-04-06 18:00:00', '2021-04-06 10:00:00 ~ 2021-04-06 18:00:00', '2021-04-06 10:00:00 ~ 2021-04-06 18:00:00', '2021-04-06 10:00:00 ~ 2021-04-06 18:00:00', '2021-04-06 10:00:00 ~ 2021-04-06 18:00:00']"
應安168 永吉場停車場站(多站),066bb42c-89d5-428a-98a6-84fb86c3e4d6,台北市信義區永吉路120巷83號旁(近永吉路120巷/虎林街120巷口),已啟用,25.042337,121.570325,24HR,64 ,"['2020-08-20 14:11:00 ~ 新增建置中狀態為 100 (即將啟用)', '2020-11-12 14:01:00 ~ 啟用', '2022-01-17 17:56:00 ~ 更改 GPS 位置', '2022-01-17 22:41:00 ~ 更改 GPS 位置', '2022-05-31 23:16:00 ~ 更改 GPS 位置']","['2021-07-29 04:09:00 ~ 2021-07-30 04:09:00', '2021-07-29 04:09:00 ~ 2021-07-30 04:09:00', '2020-12-21 06:51:00 ~ 2020-12-22 06:51:00', '2020-12-21 06:51:00 ~ 2020-12-22 06:51:00', '2020-12-21 06:51:00 ~ 2020-12-22 06:51:00', '2020-11-15 17:17:00 ~ 2020-11-16 17:17:00', '2020-11-15 17:17:00 ~ 2020-11-16 17:17:00', '2020-11-15 08:21:00 ~ 2020-11-16 08:21:00', '2020-11-15 08:21:00 ~ 2020-11-16 08:21:00', '2020-11-15 08:21:00 ~ 2020-11-16 08:21:00']"
中油茄拔加油站,067d0f3e-2dbf-4d1c-bc05-6b2f08109fb4,台南市善化區嘉北里茄拔2-30號(近善化區農會),已啟用,23.144619,120.327923,24HR,18 ,"['2018-12-21 12:20:00 ~ 新增建置中', '2018-12-22 12:05:00 ~ 狀態變更為 100 (即將啟用)', '2019-01-02 17:35:00 ~ 更改 GPS 位置', '2019-01-03 17:40:00 ~ 啟用', '2020-07-03 14:20:00 ~ 更改 GPS 位置', '2022-05-31 23:16:00 ~ 更改 GPS 位置']","['2020-02-13 10:36:00 ~ 2020-02-14 10:36:00', '2019-11-01 16:19:00 ~ 2019-11-02 16:19:00', '2019-10-23 15:27:00 ~ 2019-10-24 15:27:00', '2019-10-23 15:13:00 ~ 2019-10-24 15:13:00', '2019-10-16 12:37:00 ~ 2019-10-17 12:37:00', '2019-10-16 12:26:00 ~ 2019-10-17 12:26:00', '2019-10-02 12:49:00 ~ 2019-10-03 12:49:00', '2019-09-18 16:17:00 ~ 2019-09-19 16:17:00', '2019-08-28 15:16:00 ~ 2019-08-29 15:16:00', '2019-08-28 14:38:00 ~ 2019-08-29 14:38:00']"
家樂福桂林店站(多站),0698aaf6-87ed-4cf2-9d47-ddbd92692d1e,台北市萬華區桂林路1號(近家樂福桂林店),已啟用,25.038158,121.505378,24HR,26 ,"['2019-07-25 23:15:00 ~ 更改站名', '2019-11-29 11:50:00 ~ 將已啟用改回建置中', '2019-12-02 18:35:00 ~ 移除建置中的站', '2021-07-19 15:41:00 ~ 新增建置中狀態為 100 (即將啟用)', '2022-05-31 23:16:00 ~ 更改 GPS 位置']","['2021-07-28 22:00:00 ~ 2021-07-29 18:00:00', '2021-07-28 22:00:00 ~ 2021-07-29 18:00:00', '2021-07-28 22:00:00 ~ 2021-07-29 18:00:00', '2021-07-28 22:00:00 ~ 2021-07-29 18:00:00', '2021-07-28 22:00:00 ~ 2021-07-29 18:00:00', '2021-07-28 22:00:00 ~ 2021-07-29 18:00:00', '2021-07-28 22:00:00 ~ 2021-07-29 18:00:00', '2021-07-28 22:00:00 ~ 2021-07-29 18:00:00', '2021-07-28 22:00:00 ~ 2021-07-29 18:00:00', '2021-07-28 22:00:00 ~ 2021-07-29 18:00:00']"
全家新竹龍山店站,06b4c2c1-8743-4cf8-a68c-65a286b5c52d,新竹市東區龍山東路228號1樓(近龍山東路與龍山東一街口),已啟用,24.788816,121.012326,24HR,26 ,"['2019-10-09 14:15:00 ~ 新增建置中', '2019-10-31 23:05:00 ~ 狀態變更為 100 (即將啟用)', '2019-11-08 16:35:00 ~ 啟用', '2021-12-13 17:46:00 ~ 更改地址敘述', '2022-05-31 23:16:00 ~ 更改 GPS 位置']","['2021-07-06 10:30:00 ~ 2021-07-06 12:30:00', '2021-07-06 10:30:00 ~ 2021-07-06 12:30:00', '2021-07-06 10:30:00 ~ 2021-07-06 12:30:00', '2020-12-29 09:23:00 ~ 2020-12-30 09:23:00', '2020-12-29 09:23:00 ~ 2020-12-30 09:23:00', '2020-11-16 10:30:00 ~ 2020-11-16 15:30:00', '2020-11-16 10:30:00 ~ 2020-11-16 15:30:00', '2020-11-16 10:30:00 ~ 2020-11-16 15:30:00', '2020-11-04 12:10:00 ~ 2020-11-05 12:10:00', '2020-10-29 09:40:00 ~ 2020-10-29 15:00:00']"
中油美濃加油站,06e20d0d-5b9f-486b-9019-637af710fb9c,高雄市美濃區成功路133號(近成功路/合和路口),已啟用,22.894087,120.546963,24HR,22 ,"['2018-08-19 14:35:00 ~ 狀態變更為 100 (即將啟用)', '2018-11-07 11:05:00 ~ 啟用', '2020-10-26 16:46:00 ~ 更改站名', '2020-12-07 10:36:00 ~ 更改站名']","['2021-08-08 02:21:00 ~ 2021-08-09 02:21:00', '2021-08-08 02:21:00 ~ 2021-08-09 02:21:00', '2021-08-08 02:21:00 ~ 2021-08-09 02:21:00', '2020-08-10 17:38:00 ~ 2020-08-11 18:00:00', '2020-08-10 17:38:00 ~ 2020-08-11 18:00:00', '2020-08-10 17:38:00 ~ 2020-08-11 18:00:00', '2020-08-10 17:38:00 ~ 2020-08-11 18:00:00', '2020-08-10 17:38:00 ~ 2020-08-11 18:00:00', '2020-08-10 17:38:00 ~ 2020-08-11 18:00:00', '2020-08-10 17:38:00 ~ 2020-08-11 18:00:00']"
新北市中角灣站,070b33a7-5ddc-4245-b584-fda6103f47bd,新北市金山區台2線39公里處(近中角灣國際衝浪基地),已啟用,25.239515,121.633296,24HR,24 ,"['2020-02-20 12:45:00 ~ 新增建置中', '2020-02-24 18:25:00 ~ 狀態變更為 100 (即將啟用)', '2020-04-29 11:45:00 ~ 啟用', '2020-06-25 16:37:00 ~ 更改 GPS 位置', '2022-05-31 23:16:00 ~ 更改 GPS 位置']","['2021-05-31 15:23:00 ~ 2021-06-29 09:00:00', '2021-05-31 15:23:00 ~ 2021-06-29 09:00:00', '2021-05-31 15:23:00 ~ 2021-06-29 09:00:00', '2021-05-31 15:23:00 ~ 2021-06-29 09:00:00', '2021-05-31 15:23:00 ~ 2021-06-29 09:00:00', '2021-05-31 15:23:00 ~ 2021-06-29 09:00:00', '2021-05-31 15:23:00 ~ 2021-06-29 09:00:00', '2021-05-31 15:23:00 ~ 2021-06-29 09:00:00', '2021-05-31 15:23:00 ~ 2021-06-29 09:00:00', '2021-05-31 15:23:00 ~ 2021-06-29 09:00:00']"
全聯內埔永光店站,07270e3c-f18a-4d15-b0c4-4d928d5ceeb3,屏東縣內埔鄉永光路3號(近學人路/永光路口),已啟用,22.608832,120.564469,24HR,16 ,"['2018-11-29 18:40:00 ~ 狀態變更為 100 (即將啟用)', '2018-12-20 16:55:00 ~ 啟用', '2022-05-31 23:16:00 ~ 更改 GPS 位置']","['2020-11-04 21:59:00 ~ 2020-11-05 21:59:00', '2020-11-04 21:59:00 ~ 2020-11-05 21:59:00', '2020-10-28 15:34:00 ~ 2020-10-29 15:34:00', '2020-09-12 23:16:00 ~ 2020-09-16 23:16:00', '2020-09-12 23:16:00 ~ 2020-09-16 23:16:00', '2020-09-12 23:16:00 ~ 2020-09-16 23:16:00', '2020-09-12 23:16:00 ~ 2020-09-16 23:16:00', '2020-09-12 23:16:00 ~ 2020-09-16 23:16:00', '2020-09-12 23:16:00 ~ 2020-09-16 23:16:00', '2020-09-12 23:16:00 ~ 2020-09-16 23:16:00']"
HiLife 烏日成中店站,0739449d-a6bf-4dad-9761-d36dc59be716,台中市烏日區中山路三段548號(近成功車站),已啟用,24.113818,120.590445,24HR,18 ,"['2018-11-30 09:15:00 ~ 新增建置中', '2019-02-13 19:45:00 ~ 狀態變更為 100 (即將啟用)', '2019-02-19 14:30:00 ~ 啟用', '2020-05-20 15:35:00 ~ 更改 GPS 位置', '2022-05-31 23:16:00 ~ 更改 GPS 位置']","['2021-06-11 22:00:00 ~ 2021-06-15 18:00:00', '2021-06-11 22:00:00 ~ 2021-06-15 18:00:00', '2021-06-11 22:00:00 ~ 2021-06-15 18:00:00', '2021-06-11 22:00:00 ~ 2021-06-15 18:00:00', '2021-06-11 22:00:00 ~ 2021-06-15 18:00:00', '2021-06-11 22:00:00 ~ 2021-06-15 18:00:00', '2021-06-11 22:00:00 ~ 2021-06-15 18:00:00', '2021-06-11 22:00:00 ~ 2021-06-15 18:00:00', '2021-06-11 22:00:00 ~ 2021-06-15 18:00:00', '2021-06-11 22:00:00 ~ 2021-06-15 18:00:00']"
全家台南大興店站,0743ec4c-57c2-43b6-adab-44dc095f191e,台南市北區大興街398號(近大興街/賢北街口),已啟用,23.009285,120.182912,24HR,32 ,"['2019-02-26 12:30:00 ~ 新增建置中', '2019-04-16 10:55:00 ~ 狀態變更為 100 (即將啟用)', '2019-04-19 16:00:00 ~ 啟用', '2022-05-31 23:16:00 ~ 更改 GPS 位置']","['2021-05-13 10:00:00 ~ 2021-05-13 17:00:00', '2021-05-13 10:00:00 ~ 2021-05-13 17:00:00', '2021-05-13 10:00:00 ~ 2021-05-13 17:00:00', '2021-05-13 10:00:00 ~ 2021-05-13 17:00:00', '2021-05-13 10:00:00 ~ 2021-05-13 17:00:00', '2021-05-13 10:00:00 ~ 2021-05-13 17:00:00', '2020-02-14 14:37:00 ~ 2020-02-15 14:37:00', '2020-01-17 15:55:00 ~ 2020-01-18 15:55:00', '2020-01-17 15:49:00 ~ 2020-01-18 15:49:00', '2019-12-24 19:38:00 ~ 2019-12-25 19:38:00']"
全聯彰化彰安店站,0791aee6-5cca-48c0-93e5-ec3eb33a477d,彰化縣彰化市中正路二段828號1樓(近彰化縣警察局),已啟用,24.064469,120.534445,24HR,34 ,"['2019-10-24 16:25:00 ~ 新增建置中狀態為 100 (即將啟用)', '2019-11-01 15:05:00 ~ 啟用', '2019-12-27 19:10:00 ~ 更改地址', '2022-05-31 23:16:00 ~ 更改 GPS 位置']","['2020-07-02 14:52:00 ~ 2020-07-03 14:52:00', '2020-02-14 15:38:00 ~ 2020-02-15 15:38:00', '2020-01-30 14:35:00 ~ 2020-01-31 14:35:00', '2020-01-14 16:27:00 ~ 2020-01-15 16:27:00', '2019-12-17 14:28:00 ~ 2019-12-18 14:28:00', '2019-12-03 11:26:00 ~ 2019-12-04 11:26:00', '2019-11-19 15:08:00 ~ 2019-11-20 15:08:00', '2019-11-12 10:49:00 ~ 2019-11-13 10:49:00', '2019-11-12 10:29:00 ~ 2019-11-13 10:29:00', '2019-11-12 10:19:00 ~ 2019-11-13 10:19:00']"
花蓮國安郵局站(多站),0791f905-2a46-497c-958a-2cefc6cdc8d3,花蓮縣花蓮市中山路408號(近中山路/延平路口),已啟用,23.984192,121.603961,24HR,26 ,[],[]
高雄市都發局鼎金後路站(多站),079c5e5b-9439-4f68-bca3-9217e9fa019c,高雄市三民區鼎金後路與鼎中路交叉口(近高雄市立獅湖國小),已啟用,22.673114,120.321696,24HR,96 ,"['2021-10-19 13:51:00 ~ 新增建置中', '2021-10-25 11:11:00 ~ 狀態變更為 100 (即將啟用)', '2022-05-31 23:16:00 ~ 更改 GPS 位置']",[]
中油大林中正路加油站,07b7bc37-e1c7-441a-8983-8b2f2b68e3e8,嘉義縣大林鎮中正路801號(近自強路/中正路口),已啟用,23.609991,120.461182,24HR,24 ,[],[]
中油台中中正加油站,08118352-9dce-442e-8095-0525dee920b4,台中市梧棲區港埠路二段68號(近港埠路二段/福德街口),已啟用,24.252833,120.537737,24HR,24 ,[],[]
振興公園地下停車場B1F站(多站),08180132-04a6-4a2b-9878-6ade516d3609,台北市北投區天母西路112號(地下一樓機車停車場)(近臺北榮民總醫院),已啟用,25.118785,121.523261,24HR,32 ,"['2020-05-30 21:00:00 ~ 更改站名', '2020-06-01 15:45:00 ~ 更改站名', '2020-06-12 10:05:00 ~ 將已啟用改回建置中', '2020-06-12 13:55:00 ~ 啟用', '2020-06-12 15:55:00 ~ 將已啟用改回建置中', '2020-06-12 18:55:00 ~ 啟用', '2022-05-31 23:16:00 ~ 更改 GPS 位置']","['2021-05-28 18:00:00 ~ 2021-05-28 20:00:00', '2021-05-28 18:00:00 ~ 2021-05-28 20:00:00', '2021-05-28 18:00:00 ~ 2021-05-28 20:00:00', '2021-05-28 09:00:00 ~ 2021-05-28 18:00:00']"
中油梅山加油站,082d3dd9-0348-45a7-8ae0-073cd9ed649e,嘉義縣梅山鄉梅北村中山路746號(近中山路/三美庄口),已啟用,23.58987,120.545367,24HR,24 ,"['2020-10-30 09:36:00 ~ 新增建置中', '2020-11-02 10:11:00 ~ 狀態變更為 100 (即將啟用)', '2020-12-08 14:26:00 ~ 啟用']",['2020-12-13 15:16:00 ~ 2020-12-14 15:16:00']
中油柑園南榮加油站(多站),0836ca52-d0c6-4d21-9219-72c5cc97020c,桃園市蘆竹區南山路一段313號(近南山路一段/長榮路口),已啟用,25.057578,121.288785,24HR,48 ,"['2020-10-26 13:26:00 ~ 新增建置中狀態為 100 (即將啟用)', '2020-10-26 14:46:00 ~ 更改 GPS 位置', '2020-10-28 14:31:00 ~ 啟用', '2021-04-22 14:16:00 ~ 更改 GPS 位置', '2022-05-31 23:16:00 ~ 更改 GPS 位置']","['2021-08-05 08:25:00 ~ 2021-08-06 08:25:00', '2021-07-30 03:14:00 ~ 2021-07-31 03:14:00', '2021-04-02 14:15:00 ~ 2021-04-02 16:15:00', '2021-04-02 14:15:00 ~ 2021-04-02 16:15:00', '2021-04-02 14:15:00 ~ 2021-04-02 16:15:00']"
中油大潮州加油站,084e3250-8894-43c6-942e-cb45154f1abc,屏東縣竹田鄉大成路33號(近大成路/屏56),已啟用,22.574498,120.516407,24HR,24 ,"['2021-10-15 09:46:00 ~ 新增建置中', '2021-10-22 02:56:00 ~ 狀態變更為 100 (即將啟用)', '2021-12-01 14:11:00 ~ 啟用', '2022-05-31 23:16:00 ~ 更改 GPS 位置']",[]
西湖公園站(多站),085e40e2-3d09-4931-b0a9-dc909312c045,台北市內湖區內湖路一段387巷38號(近內湖路一段387巷/內湖路一段411巷74弄口),已啟用,25.083971,121.57061,24HR,50 ,"['2021-05-20 14:56:00 ~ 新增建置中狀態為 100 (即將啟用)', '2021-06-29 15:16:00 ~ 啟用']",[]
臺北市災害應變中心地下停車場B1F站,08663aa4-85c3-42f6-b6ac-437935132f08,台北市信義區莊敬路391巷11弄2號(地下一樓機車停車場)(近臺北市松山地政事務所),已啟用,25.029023,121.565942,24HR,28 ,"['2019-09-06 13:45:00 ~ 新增建置中', '2019-11-01 18:05:00 ~ 更改地址敘述', '2019-11-12 21:30:00 ~ 狀態變更為 100 (即將啟用)', '2019-12-20 14:35:00 ~ 啟用', '2020-05-30 21:00:00 ~ 更改站名', '2020-06-01 15:45:00 ~ 更改站名', '2020-06-17 03:35:00 ~ 更改 GPS 位置', '2022-01-17 17:56:00 ~ 更改 GPS 位置', '2022-05-31 23:16:00 ~ 更改 GPS 位置']","['2021-08-14 19:50:00 ~ 2021-08-15 19:50:00', '2021-08-14 19:50:00 ~ 2021-08-15 19:50:00', '2021-07-12 18:00:00 ~ 2021-07-13 14:00:00', '2021-07-12 18:00:00 ~ 2021-07-13 18:00:00', '2021-07-12 18:00:00 ~ 2021-07-13 14:00:00', '2021-07-12 18:00:00 ~ 2021-07-13 18:00:00', '2021-07-12 18:00:00 ~ 2021-07-13 14:00:00', '2021-07-12 18:00:00 ~ 2021-07-13 14:00:00', '2021-07-12 18:00:00 ~ 2021-07-13 14:00:00', '2021-07-12 18:00:00 ~ 2021-07-13 14:00:00']"
山隆員林加油站(多站),08703451-902f-44df-a63f-db3feb957b53,彰化縣員林市三義里21鄰中山路1段399號(近中山路一段/惠明街口),已啟用,23.951055,120.566004,24HR,50 ,"['2020-09-18 10:26:00 ~ 新增建置中', '2020-09-23 17:36:00 ~ 狀態變更為 100 (即將啟用)', '2020-09-28 12:31:00 ~ 啟用', '2020-10-05 12:46:00 ~ 更改地址', '2022-03-28 16:26:00 ~ 更改站名', '2022-05-31 23:16:00 ~ 更改 GPS 位置']",[]
HiLife 鳳山文東店站(多站),088d9b11-f6d5-43bf-8837-6fc1e70865d1,高雄市鳳山區文龍東路240號(近鎮北國小),已啟用,22.640711,120.368378,24HR,48 ,"['2018-11-21 20:15:00 ~ 新增建置中', '2019-02-15 19:10:00 ~ 狀態變更為 100 (即將啟用)', '2019-02-25 15:20:00 ~ 啟用', '2020-06-12 10:15:00 ~ 將已啟用改回建置中', '2020-06-12 11:55:00 ~ 啟用', '2022-05-31 23:16:00 ~ 更改 GPS 位置']",[]
全家沙鹿金斗店站(多站),08a591f2-fb05-4e38-af0c-2c30f39fd386,台中市沙鹿區南斗路29號(近南斗路/南斗路27巷口),已啟用,24.216638,120.569034,24HR,50 ,['2022-05-31 23:16:00 ~ 更改 GPS 位置'],[]
和春技術學院大寮校區站(多站),08be4db1-38d7-470d-8b2d-9f5de265c547,高雄市大寮區信義路40號(近信義路/四維路口),已啟用,22.634332,120.391586,24HR,84 ,"['2019-09-27 09:30:00 ~ 新增建置中', '2019-09-27 17:35:00 ~ 更改站名', '2019-10-09 11:55:00 ~ 更改站名', '2019-10-30 23:20:00 ~ 狀態變更為 100 (即將啟用)', '2019-11-08 10:30:00 ~ 啟用', '2021-05-14 14:51:00 ~ 更改地址敘述', '2022-01-13 23:59:00 ~ 更改 GPS 位置', '2022-05-31 23:16:00 ~ 更改 GPS 位置']",[]
楓康超市崇德店站,08c37a0a-4b02-4dc5-81ca-41d769a77898,台中市北屯區崇德路三段477號(近崇德路/崇仁街路口),已啟用,24.191275,120.686197,24HR,22 ,"['2019-07-18 12:30:00 ~ 新增建置中', '2019-08-08 11:25:00 ~ 狀態變更為 100 (即將啟用)', '2019-08-16 11:55:00 ~ 啟用', '2019-08-19 09:40:00 ~ 更改 GPS 位置']","['2021-02-27 13:15:00 ~ 2021-02-27 16:30:00', '2021-02-27 13:15:00 ~ 2021-02-27 16:30:00', '2021-02-27 13:15:00 ~ 2021-02-27 16:30:00', '2021-02-27 13:15:00 ~ 2021-02-27 16:30:00', '2021-02-27 13:15:00 ~ 2021-02-27 16:30:00', '2021-02-27 13:15:00 ~ 2021-02-27 16:30:00', '2021-02-27 13:15:00 ~ 2021-02-27 16:30:00', '2021-02-27 13:15:00 ~ 2021-02-27 16:30:00', '2021-02-27 13:15:00 ~ 2021-02-27 16:30:00', '2021-02-27 13:15:00 ~ 2021-02-27 16:30:00']"
7-ELEVEN 誠安店站,08d04a27-c213-46bc-8001-cab1a6f70049,台北市大安區敦化南路1段247巷12號(近敦化南路一段/安和路一段路口),已啟用,25.038854,121.550004,24HR,22 ,"['2018-12-07 09:30:00 ~ 新增建置中', '2019-01-19 09:55:00 ~ 狀態變更為 100 (即將啟用)', '2019-02-27 13:40:00 ~ 啟用', '2022-05-31 23:16:00 ~ 更改 GPS 位置']","['2020-09-22 18:54:00 ~ 2020-09-24 18:54:00', '2020-09-22 18:54:00 ~ 2020-09-24 18:54:00', '2020-09-22 18:54:00 ~ 2020-09-24 18:54:00', '2020-09-22 18:54:00 ~ 2020-09-24 18:54:00', '2020-09-22 18:54:00 ~ 2020-09-24 18:54:00', '2020-09-22 18:54:00 ~ 2020-09-23 18:54:00', '2020-09-22 18:54:00 ~ 2020-09-23 18:54:00', '2020-09-20 16:38:00 ~ 2020-09-21 16:38:00', '2020-09-20 16:38:00 ~ 2020-09-21 16:38:00', '2020-09-20 16:38:00 ~ 2020-09-21 16:38:00']"
7-ELEVEN 鼎利店站,08f916b4-0c06-4f72-82c6-c669a92475f8,台南市關廟區南雄路二段210號(近南雄路二段/成功路交叉口),已啟用,22.96459,120.32895,24HR,34 ,"['2019-03-29 11:55:00 ~ 新增建置中', '2019-05-03 09:25:00 ~ 狀態變更為 100 (即將啟用)', '2019-05-16 20:35:00 ~ 啟用']","['2020-01-22 14:46:00 ~ 2020-01-23 14:46:00', '2020-01-17 18:06:00 ~ 2020-01-18 18:06:00', '2020-01-16 12:09:00 ~ 2020-01-17 12:09:00', '2019-12-05 10:08:00 ~ 2019-12-06 10:08:00', '2019-11-15 15:29:00 ~ 2019-11-16 15:29:00', '2019-11-15 14:42:00 ~ 2019-11-16 14:42:00', '2019-11-15 13:35:00 ~ 2019-11-16 13:35:00', '2019-11-15 13:25:00 ~ 2019-11-16 13:25:00', '2019-11-15 12:45:00 ~ 2019-11-16 12:45:00', '2019-11-15 12:32:00 ~ 2019-11-16 12:32:00']"
中油大立鴻福加油站,092ab2f9-c45b-4c17-b01a-ba6f85046086,金門縣金湖鎮瓊徑路7號(近瓊徑路/精武路口),已啟用,24.443806,118.387991,24HR,18 ,[],[]
Gogoro 桃園藝文店站,0938536c-88f8-44ef-801a-05e9b62c7873,桃園市桃園區大興西路一段163號(近大興西路一段/同安街口),已啟用,25.014391,121.305131,24HR,26 ,"['2019-12-06 15:10:00 ~ 更改地址敘述', '2020-06-12 10:05:00 ~ 將已啟用改回建置中', '2020-06-12 12:55:00 ~ 啟用', '2022-05-31 23:16:00 ~ 更改 GPS 位置']","['2021-08-13 23:06:00 ~ 2021-08-15 23:06:00', '2021-08-13 23:06:00 ~ 2021-08-14 23:06:00', '2021-08-10 08:55:00 ~ 2021-08-11 08:55:00', '2021-08-10 08:55:00 ~ 2021-08-11 08:55:00', '2021-08-10 08:55:00 ~ 2021-08-11 08:55:00', '2021-08-10 08:55:00 ~ 2021-08-11 08:55:00', '2021-07-29 13:42:00 ~ 2021-07-30 13:42:00', '2021-07-28 18:30:00 ~ 2021-07-29 13:00:00', '2021-07-28 18:30:00 ~ 2021-07-29 13:00:00', '2021-07-26 18:00:00 ~ 2021-07-28 17:00:00']"
7-ELEVEN 航發店站,094c62ab-1c1c-47f5-92b5-2ecc3d7770d8,台中市西屯區河南路二段242號(近河南路二段與逢大路路口),已啟用,24.175841,120.650286,24HR,18 ,['2022-05-31 23:16:00 ~ 更改 GPS 位置'],"['2021-08-13 17:21:00 ~ 2021-08-14 17:21:00', '2021-08-13 17:21:00 ~ 2021-08-14 17:21:00', '2021-07-27 17:29:00 ~ 2021-07-28 17:29:00', '2021-05-13 16:30:00 ~ 2021-05-14 00:00:00', '2021-05-13 16:30:00 ~ 2021-05-14 00:00:00', '2021-05-13 16:30:00 ~ 2021-05-14 00:00:00', '2021-05-13 16:30:00 ~ 2021-05-14 00:00:00', '2021-05-13 16:30:00 ~ 2021-05-14 18:00:00', '2021-05-13 16:30:00 ~ 2021-05-14 18:00:00', '2020-11-11 20:13:00 ~ 2020-11-13 20:13:00']"
府前廣場地下停車場B1F站,0957c52a-b56f-4edb-b31c-78ee7d3acea9,台北市信義區松壽路1號(地下一樓機車停車場)(近松壽路/市府路口),已啟用,25.036104,121.563119,24HR,30 ,"['2019-09-06 17:25:00 ~ 新增建置中', '2019-10-15 17:30:00 ~ 狀態變更為 100 (即將啟用)', '2019-11-01 18:05:00 ~ 更改地址敘述', '2020-05-04 11:40:00 ~ 啟用', '2020-05-05 17:25:00 ~ 更改 GPS 位置', '2020-05-30 21:00:00 ~ 更改站名', '2020-06-01 15:45:00 ~ 更改站名', '2022-05-31 23:16:00 ~ 更改 GPS 位置']","['2020-12-10 07:35:00 ~ 2020-12-11 07:35:00', '2020-12-10 07:35:00 ~ 2020-12-11 07:35:00', '2020-11-19 19:37:00 ~ 2020-11-20 19:37:00', '2020-11-19 19:37:00 ~ 2020-11-20 19:37:00', '2020-11-19 19:37:00 ~ 2020-11-20 19:37:00', '2020-11-19 19:37:00 ~ 2020-11-20 19:37:00', '2020-11-09 17:37:00 ~ 2020-11-10 17:37:00', '2020-11-06 09:55:00 ~ 2020-11-06 13:30:00', '2020-11-06 09:55:00 ~ 2020-11-06 13:30:00', '2020-09-04 18:23:00 ~ 2020-09-17 18:23:00']"
中油田中加油站,098185ef-7579-42f9-9a71-92569204b004,彰化縣田中鎮員集路一段783號(近員集路一段/興工路口),已啟用,23.849777,120.591092,24HR,18 ,"['2019-10-24 14:40:00 ~ 新增建置中', '2019-11-13 15:50:00 ~ 狀態變更為 100 (即將啟用)', '2020-02-15 11:10:00 ~ 啟用', '2022-05-31 23:16:00 ~ 更改 GPS 位置']","['2020-11-20 13:36:00 ~ 2020-11-21 13:36:00', '2020-11-20 13:36:00 ~ 2020-11-21 13:36:00', '2020-11-20 13:36:00 ~ 2020-11-21 13:36:00', '2020-10-09 19:48:00 ~ 2020-10-10 19:48:00', '2020-10-09 19:48:00 ~ 2020-10-10 19:48:00', '2020-09-04 18:42:00 ~ 2020-09-05 18:42:00', '2020-09-04 18:42:00 ~ 2020-09-05 18:42:00', '2020-09-04 08:40:00 ~ 2020-09-04 12:00:00', '2020-09-04 08:40:00 ~ 2020-09-04 12:00:00', '2020-09-04 06:47:00 ~ 2020-09-05 06:47:00']"
全聯八德大湳店站,09956233-a912-4b3a-a905-875e3c2d2099,桃園市八德區福國北街79號(近福國北街/中路街口),已啟用,24.961035,121.29478,24HR,24 ,['2021-08-24 11:01:00 ~ 更改 GPS 位置'],"['2021-08-10 14:30:00 ~ 2021-08-11 14:30:00', '2021-07-06 14:20:00 ~ 2021-07-06 18:00:00', '2021-07-06 14:20:00 ~ 2021-07-06 18:00:00', '2021-07-06 14:20:00 ~ 2021-07-06 18:00:00', '2021-07-06 14:20:00 ~ 2021-07-06 18:00:00', '2021-05-10 20:16:00 ~ 2021-05-11 13:00:00', '2021-05-10 20:16:00 ~ 2021-05-11 13:00:00', '2021-05-10 20:16:00 ~ 2021-05-11 13:00:00', '2021-05-10 20:16:00 ~ 2021-05-11 13:00:00', '2021-05-10 20:16:00 ~ 2021-05-11 13:00:00']"
Gogoro 板橋南雅西服務中心站,09bf90dc-c517-4ea4-8c69-398bc2ff0c19,新北市板橋區南雅西路二段247號(近南雅西路二段/大仁街口),已啟用,25.014535,121.451628,24HR,18 ,"['2019-12-05 18:30:00 ~ 新增建置中狀態為 100 (即將啟用)', '2019-12-08 15:10:00 ~ 將狀態 100 改回建置中', '2019-12-09 12:45:00 ~ 狀態變更為 100 (即將啟用)', '2019-12-12 15:15:00 ~ 啟用', '2020-01-16 16:30:00 ~ 更改站名', '2021-07-22 15:01:00 ~ 更改 GPS 位置', '2021-07-22 15:06:00 ~ 更改 GPS 位置', '2022-05-31 23:16:00 ~ 更改 GPS 位置']","['2021-07-28 10:30:00 ~ 2021-07-28 18:00:00', '2021-07-28 10:30:00 ~ 2021-07-28 18:00:00', '2021-07-28 10:30:00 ~ 2021-07-28 18:00:00', '2021-07-28 08:23:00 ~ 2021-07-29 08:23:00', '2021-07-28 08:23:00 ~ 2021-07-29 08:23:00', '2021-07-28 08:23:00 ~ 2021-07-29 08:23:00', '2020-11-20 15:54:00 ~ 2020-11-21 15:54:00', '2020-11-20 15:54:00 ~ 2020-11-21 15:54:00', '2020-11-20 15:54:00 ~ 2020-11-21 15:54:00', '2020-09-16 18:22:00 ~ 2020-09-17 18:22:00']"
台北捷運劍南路站(多站),09d2a9d7-e031-4e06-857f-3c316b289bd0,台北市中山區敬業二路捷運站2號出口(近捷運站機車轉乘停車場),已啟用,25.08464,121.55456,24HR,46 ,"['2018-08-13 14:15:00 ~ 更改 GPS 位置', '2019-02-25 10:15:00 ~ 更改 GPS 位置', '2022-05-31 23:16:00 ~ 更改 GPS 位置']","['2019-08-04 18:07:00 ~ 2019-08-24 18:07:00', '2019-08-04 18:07:00 ~ 2019-08-24 18:07:00', '2019-08-04 18:07:00 ~ 2019-08-24 18:07:00', '2019-08-04 18:07:00 ~ 2019-08-24 18:07:00', '2019-08-04 18:07:00 ~ 2019-08-24 18:07:00', '2019-08-04 18:07:00 ~ 2019-08-24 18:07:00', '2019-08-04 18:07:00 ~ 2019-08-24 18:07:00', '2019-08-04 18:07:00 ~ 2019-08-24 18:07:00', '2019-08-04 18:07:00 ~ 2019-08-24 18:07:00', '2019-08-04 18:07:00 ~ 2019-08-24 18:07:00']"
臺鐵大慶車站(多站),09da19af-e0e4-4c78-bd93-86f2b3256a5b,臺中市南區樹德里7鄰大慶街2段130號(近大慶街二段/建國南路口),已啟用,24.118577,120.647547,24HR,52 ,"['2021-05-28 10:46:00 ~ 新增建置中', '2021-06-01 16:31:00 ~ 狀態變更為 100 (即將啟用)', '2022-04-13 11:31:00 ~ 啟用', '2022-05-31 23:16:00 ~ 更改 GPS 位置']",[]
中油中正三路加油站,09e24067-a51e-4225-b6e1-5eee6210a9c1,高雄市新興區中正三路9號(近中正三路與錦田路交叉口),已啟用,22.630478,120.310532,24HR,18 ,"['2018-12-27 09:15:00 ~ 新增建置中', '2019-01-09 20:15:00 ~ 狀態變更為 100 (即將啟用)', '2019-01-18 18:05:00 ~ 啟用', '2019-01-18 18:25:00 ~ 將已啟用改回建置中', '2019-01-21 10:25:00 ~ 啟用', '2022-05-31 23:16:00 ~ 更改 GPS 位置']","['2021-08-03 09:32:00 ~ 2021-08-04 09:32:00', '2021-08-03 09:32:00 ~ 2021-08-04 09:32:00', '2021-07-06 17:40:00 ~ 2021-07-30 18:00:00', '2021-07-06 17:40:00 ~ 2021-07-30 18:00:00', '2021-07-06 17:40:00 ~ 2021-07-30 18:00:00', '2021-07-06 17:40:00 ~ 2021-07-30 18:00:00', '2021-07-06 17:40:00 ~ 2021-07-30 18:00:00', '2021-07-06 17:40:00 ~ 2021-07-30 18:00:00', '2021-07-06 17:40:00 ~ 2021-07-30 18:00:00', '2021-07-06 17:40:00 ~ 2021-07-30 18:00:00']"
臺中市廣民停車場站(多站),09f5a776-a661-4db1-b092-a99a5ed92169,臺中市西區四維街、大明街(近四維街/大明街路口),已啟用,24.139147,120.673561,24HR,48 ,"['2020-05-29 10:45:00 ~ 新增建置中', '2020-06-02 11:55:00 ~ 狀態變更為 100 (即將啟用)', '2020-07-13 16:16:00 ~ 啟用', '2020-07-13 17:36:00 ~ 更改 GPS 位置', '2022-05-31 23:16:00 ~ 更改 GPS 位置']","['2021-08-11 11:01:00 ~ 2021-08-12 11:01:00', '2021-07-29 00:39:00 ~ 2021-07-30 00:39:00', '2021-07-02 10:00:00 ~ 2021-07-02 18:00:00', '2021-07-02 10:00:00 ~ 2021-07-02 18:00:00', '2021-07-02 10:00:00 ~ 2021-07-02 18:00:00', '2021-07-02 10:00:00 ~ 2021-07-02 18:00:00', '2021-07-02 10:00:00 ~ 2021-07-02 18:00:00', '2021-07-02 10:00:00 ~ 2021-07-02 18:00:00', '2021-07-02 10:00:00 ~ 2021-07-02 18:00:00', '2021-07-02 10:00:00 ~ 2021-07-02 18:00:00']"
中油挖仔加油站,0a3a8f55-4e50-452d-8045-4055dc5e41af,彰化縣二林鎮二溪路七段552號(近二溪路七段/二溪路七段554巷口),已啟用,23.95325,120.43538,24HR,24 ,[],[]
屏東縣大灣路停車場站(多站),0a483e36-c7f2-4c67-bd17-8268762d64ba,屏東縣恆春鎮大灣路187號旁(近恆春鎮農會墾丁辦事處),已啟用,21.944979,120.796424,24HR,26 ,"['2021-10-19 13:51:00 ~ 新增建置中', '2021-10-28 00:36:00 ~ 狀態變更為 100 (即將啟用)', '2022-05-31 23:16:00 ~ 更改 GPS 位置']",[]
7-ELEVEN 亮亞店站(多站),0a7b2f7b-7db1-489b-90a6-2fc56d737244,桃園市蘆竹區大福路189號(近大福路/大新一街交叉口),已啟用,25.020779,121.2578,24HR,52 ,"['2019-05-15 10:00:00 ~ 新增建置中', '2019-05-22 12:10:00 ~ 狀態變更為 100 (即將啟用)', '2019-08-12 12:50:00 ~ 啟用', '2019-12-06 15:30:00 ~ 更改地址敘述']",[]
中油申昌加油站,0a8a0d31-5928-4209-8a3f-a1e2b2900e4a,苗栗縣通霄鎮白東93-3號,已啟用,24.569936,120.712752,24HR,24 ,[],[]
全家路竹竹東店站,0aaa0501-29cc-407d-959f-2d4908ec9461,高雄市路竹區中山路711號(近中山路/自由街190巷),已啟用,22.864854,120.257211,24HR,32 ,"['2019-10-05 14:55:00 ~ 新增建置中', '2019-11-07 18:15:00 ~ 狀態變更為 100 (即將啟用)', '2019-11-14 14:45:00 ~ 啟用', '2022-05-31 23:16:00 ~ 更改 GPS 位置']","['2021-08-10 08:00:00 ~ 2021-08-20 18:00:00', '2021-08-10 08:00:00 ~ 2021-08-20 18:00:00', '2021-08-10 08:00:00 ~ 2021-08-20 18:00:00', '2021-08-10 08:00:00 ~ 2021-08-20 18:00:00', '2021-08-10 08:00:00 ~ 2021-08-20 18:00:00', '2021-08-10 08:00:00 ~ 2021-08-20 18:00:00', '2021-08-10 08:00:00 ~ 2021-08-20 18:00:00', '2021-08-10 08:00:00 ~ 2021-08-20 18:00:00', '2021-08-10 08:00:00 ~ 2021-08-20 18:00:00', '2021-08-10 08:00:00 ~ 2021-08-20 18:00:00']"
全家新竹中華店站,0ab074be-20b6-46a7-a94f-67b8aed2571a,新竹市香山區五福路二段776﹑778號(近五福路二段與明德路口),已啟用,24.756943,120.952323,24HR,34 ,"['2019-03-29 12:35:00 ~ 新增建置中狀態為 100 (即將啟用)', '2019-04-03 12:20:00 ~ 啟用']","['2021-05-20 10:10:00 ~ 2021-05-20 15:30:00', '2021-05-20 10:10:00 ~ 2021-05-20 15:30:00', '2021-05-20 10:10:00 ~ 2021-05-20 15:30:00', '2021-05-20 10:10:00 ~ 2021-05-20 15:30:00', '2021-05-20 10:10:00 ~ 2021-05-20 15:30:00', '2021-05-20 10:10:00 ~ 2021-05-20 15:30:00', '2020-09-11 16:55:00 ~ 2020-09-12 16:55:00', '2020-09-10 15:00:00 ~ 2020-09-10 18:00:00', '2020-09-10 15:00:00 ~ 2020-09-10 18:00:00', '2020-09-10 15:00:00 ~ 2020-09-10 18:00:00']"
山隆林口加油站,0abdf662-692d-4e54-9014-0ac31d8a96e8,新北市林口區文化二路二段553號(近中華路/文化二路口),已啟用,25.090349,121.383464,24HR,12 ,['2022-05-31 23:16:00 ~ 更改 GPS 位置'],"['2021-06-06 09:25:00 ~ 2021-06-07 14:00:00', '2021-06-06 09:25:00 ~ 2021-06-07 14:00:00', '2021-06-06 09:25:00 ~ 2021-06-07 14:00:00', '2021-06-06 09:25:00 ~ 2021-06-07 14:00:00', '2021-06-06 09:25:00 ~ 2021-06-07 14:00:00', '2021-06-06 09:25:00 ~ 2021-06-07 14:00:00', '2021-06-06 09:25:00 ~ 2021-06-07 14:00:00', '2021-06-06 09:25:00 ~ 2021-06-07 14:00:00', '2021-06-06 09:25:00 ~ 2021-06-07 14:00:00', '2021-06-06 09:25:00 ~ 2021-06-07 14:00:00']"
新北市溪美立體停車場站(多站),0adcb8a1-b1c0-4ef5-bc36-c1ded4470531,新北市三重區自強路四段55號(近新北市三重戶政事務所溪美辦事處),已啟用,25.078156,121.490272,24HR,90 ,"['2019-10-10 13:30:00 ~ 更改站名', '2022-05-31 23:16:00 ~ 更改 GPS 位置']",[]
全家新健康店站,0aed58f7-f6a4-4294-9c89-a708312eb59c,台北市松山區南京東路四段133巷9弄2號(近南京東路四段133巷/健康路口),已啟用,25.053317,121.555217,24HR,24 ,"['2020-07-30 14:11:00 ~ 新增建置中狀態為 100 (即將啟用)', '2020-08-07 13:11:00 ~ 啟用', '2022-05-31 23:16:00 ~ 更改 GPS 位置']","['2021-07-29 10:00:00 ~ 2021-07-29 12:30:00', '2021-06-08 11:30:00 ~ 2021-06-08 14:30:00', '2021-06-08 11:30:00 ~ 2021-06-08 14:30:00', '2020-12-02 17:38:00 ~ 2020-12-03 17:38:00', '2020-12-02 17:38:00 ~ 2020-12-03 17:38:00', '1899-12-30 00:00:00 ~ 2020-12-04 00:00:00', '2020-09-09 12:43:00 ~ 2020-09-10 12:43:00']"
7-ELEVEN 明道店站,0af5ce47-1673-4fc3-bcdc-8fd1a08f33ca,彰化縣溪州鄉中山路四段627號(近彰182線),已啟用,23.869201,120.513172,24HR,18 ,"['2019-03-22 15:00:00 ~ 新增建置中', '2019-05-10 15:10:00 ~ 狀態變更為 100 (即將啟用)', '2019-05-17 10:20:00 ~ 啟用', '2022-05-31 23:16:00 ~ 更改 GPS 位置']","['2021-06-02 18:00:00 ~ 2021-06-03 18:00:00', '2021-06-02 18:00:00 ~ 2021-06-03 18:00:00', '2021-06-02 18:00:00 ~ 2021-06-03 18:00:00', '2021-06-02 18:00:00 ~ 2021-06-03 18:00:00', '2021-06-02 18:00:00 ~ 2021-06-03 18:00:00', '2021-06-02 18:00:00 ~ 2021-06-03 18:00:00', '2021-06-02 18:00:00 ~ 2021-06-03 18:00:00', '2021-06-02 18:00:00 ~ 2021-06-03 18:00:00', '2021-06-02 18:00:00 ~ 2021-06-03 18:00:00', '2021-06-02 18:00:00 ~ 2021-06-03 18:00:00']"
長榮崇明停車場站,0af88859-618e-4d0c-a9a4-a632e59049e0,台南市東區長榮路一段與長榮路一段15巷口(近長榮路一段/長榮路一段15巷口),已啟用,22.982566,120.216129,24HR,34 ,"['2019-08-08 22:35:00 ~ 新增建置中', '2019-08-21 16:50:00 ~ 更改地址', '2019-10-24 16:05:00 ~ 狀態變更為 100 (即將啟用)', '2020-04-07 11:55:00 ~ 啟用', '2020-07-03 13:20:00 ~ 更改 GPS 位置', '2022-05-31 23:16:00 ~ 更改 GPS 位置']","['2021-08-12 18:00:00 ~ 2021-08-13 18:00:00', '2021-08-12 18:00:00 ~ 2021-08-13 18:00:00', '2021-08-12 18:00:00 ~ 2021-08-13 18:00:00', '2021-08-12 18:00:00 ~ 2021-08-13 18:00:00', '2021-08-12 18:00:00 ~ 2021-08-13 18:00:00', '2021-08-12 18:00:00 ~ 2021-08-13 18:00:00', '2021-08-12 18:00:00 ~ 2021-08-13 18:00:00', '2021-08-12 18:00:00 ~ 2021-08-13 18:00:00', '2021-08-12 18:00:00 ~ 2021-08-13 18:00:00', '2021-08-12 18:00:00 ~ 2021-08-13 18:00:00']"
HiLife 桃縣桃濱店站,0afae98c-b0f5-404c-b478-ee78b8135838,桃園市新屋區中山西路三段650號(近中山西路三段/文化路三段交叉口),已啟用,24.989052,121.030577,24HR,34 ,"['2019-09-19 00:20:00 ~ 新增建置中', '2019-11-28 14:25:00 ~ 狀態變更為 100 (即將啟用)', '2019-12-13 10:50:00 ~ 啟用', '2022-05-31 23:16:00 ~ 更改 GPS 位置']","['2021-06-16 14:15:00 ~ 2021-06-16 15:50:00', '2021-06-16 14:15:00 ~ 2021-06-16 15:50:00', '2021-06-16 14:15:00 ~ 2021-06-16 15:50:00', '2020-11-13 11:50:00 ~ 2020-11-13 14:00:00', '2020-11-13 11:50:00 ~ 2020-11-13 14:00:00', '2020-06-24 12:00:00 ~ 2020-06-24 13:10:00', '2020-06-20 06:56:00 ~ 2020-06-21 06:56:00']"
中油永錡彭厝加油站,0b285a50-e1d9-41d5-9778-2b4dc6fa9aaf,新北市樹林區八德街395號(近環河路/八德街交接口),已啟用,24.971815,121.415669,24HR,24 ,"['2021-06-29 10:16:00 ~ 移除', '2021-10-17 19:46:00 ~ 新增建置中狀態為 100 (即將啟用)', '2021-12-08 14:41:00 ~ 啟用', '2022-05-31 23:16:00 ~ 更改 GPS 位置']","['2020-11-09 10:40:00 ~ 2020-11-09 13:00:00', '2020-11-02 17:38:00 ~ 2020-11-03 17:38:00', '2020-10-26 11:26:00 ~ 2020-10-27 11:26:00', '2020-07-06 09:08:00 ~ 2020-07-07 09:08:00', '2020-07-06 07:57:00 ~ 2020-07-07 07:57:00', '2020-06-27 13:10:00 ~ 2020-06-28 13:10:00', '2020-06-20 14:24:00 ~ 2020-06-21 14:24:00', '2020-06-20 12:47:00 ~ 2020-06-21 12:47:00', '2020-06-18 10:35:00 ~ 2020-06-18 13:00:00', '2020-02-13 12:04:00 ~ 2020-02-14 12:04:00']"
中油潮州加油站,0b2a7bca-3af6-42b4-905d-a1ae36ad9884,屏東縣潮州鎮延平路217號(近中油快保中心),已啟用,22.557001,120.54029,24HR,24 ,[],"['2021-08-13 18:30:00 ~ 2021-08-20 18:00:00', '2021-08-13 18:30:00 ~ 2021-08-20 18:00:00', '2021-08-13 18:30:00 ~ 2021-08-20 18:00:00', '2021-08-13 18:30:00 ~ 2021-08-20 18:00:00', '2021-08-13 18:30:00 ~ 2021-08-20 18:00:00', '2021-08-13 18:30:00 ~ 2021-08-20 18:00:00', '2021-08-13 18:30:00 ~ 2021-08-20 18:00:00', '2021-08-13 18:30:00 ~ 2021-08-20 18:00:00', '2021-08-13 18:30:00 ~ 2021-08-20 18:00:00', '2021-08-13 18:30:00 ~ 2021-08-20 18:00:00']"
全家台南三喜店站,0b4751ad-8c94-46cc-8bd8-722a1d8c74f6,台南市南區喜樹路220號(近喜樹路/喜明街口),已啟用,22.941226,120.178386,24HR,18 ,"['2019-03-04 10:15:00 ~ 新增建置中', '2019-03-25 17:25:00 ~ 狀態變更為 100 (即將啟用)', '2019-04-01 03:20:00 ~ 更改 GPS 位置', '2019-04-02 11:00:00 ~ 啟用', '2020-07-03 14:00:00 ~ 更改 GPS 位置', '2022-05-31 23:16:00 ~ 更改 GPS 位置']","['2020-01-22 16:14:00 ~ 2020-01-23 16:14:00', '2019-11-27 10:06:00 ~ 2019-11-28 10:06:00', '2019-11-27 09:55:00 ~ 2019-11-28 09:55:00', '2019-11-20 15:25:00 ~ 2019-11-21 15:25:00', '2019-10-25 10:54:00 ~ 2019-10-26 10:54:00', '2019-09-19 02:34:00 ~ 2019-09-20 02:34:00', '2019-09-18 13:20:00 ~ 2019-09-19 13:20:00', '2019-09-11 15:26:00 ~ 2019-09-12 15:26:00', '2019-09-06 15:58:00 ~ 2019-09-07 15:58:00', '2019-08-19 12:54:00 ~ 2019-08-20 12:54:00']"
家樂福楠梓店站,0b6457a3-1197-4625-9031-0cbe59a73004,高雄市楠梓區藍田路288號(近中山高中),已啟用,22.727367,120.291102,24HR,16 ,[],"['2020-10-29 10:28:00 ~ 2020-10-30 10:28:00', '2020-10-14 09:18:00 ~ 2020-10-17 09:18:00', '2020-10-14 09:18:00 ~ 2020-10-17 09:18:00', '2020-10-14 09:18:00 ~ 2020-10-17 09:18:00', '2020-10-14 09:18:00 ~ 2020-10-17 09:18:00', '2020-10-14 09:18:00 ~ 2020-10-17 09:18:00', '2020-10-14 09:18:00 ~ 2020-10-17 09:18:00', '2020-10-14 09:18:00 ~ 2020-10-17 09:18:00', '2020-10-14 09:18:00 ~ 2020-10-17 09:18:00', '2020-10-14 09:18:00 ~ 2020-10-16 09:18:00']"
新北市萬板高架橋下停車場站(多站),0b73ddf9-83df-41c7-a89b-f8dae4098532,新北市板橋區萬板路310號對面(近萬板路/雙十路二段口),已啟用,25.025171,121.477644,24HR,46 ,"['2020-11-24 10:11:00 ~ 新增建置中狀態為 100 (即將啟用)', '2021-07-14 10:01:00 ~ 啟用', '2022-05-31 23:16:00 ~ 更改 GPS 位置']",[]
臺鐵千甲車站,0b7e301d-3bb8-4a67-80e4-2bc67999b9be,新竹市東區千甲路142號(近YouBike 千甲火車站),已啟用,24.807208,121.001892,24HR,24 ,"['2021-09-09 10:11:00 ~ 新增建置中狀態為 100 (即將啟用)', '2021-09-10 09:16:00 ~ 將狀態 100 改回建置中', '2021-09-14 12:36:00 ~ 狀態變更為 100 (即將啟用)', '2021-12-15 13:26:00 ~ 啟用', '2022-05-31 23:16:00 ~ 更改 GPS 位置']",[]
新北市鷺江立體停車場站(多站),0b86f3c5-989e-4d12-b508-b2fd4ce0ca79,新北市蘆洲區民權路26號(近民權路/民權路3巷口),已啟用,25.086104,121.47674,24HR,34 ,"['2020-05-21 18:55:00 ~ 新增建置中狀態為 100 (即將啟用)', '2020-05-26 12:20:00 ~ 將狀態 100 改回建置中', '2020-05-26 14:05:00 ~ 啟用', '2020-05-26 18:25:00 ~ 將已啟用改回建置中', '2020-06-09 18:15:00 ~ 啟用', '2020-06-12 10:05:00 ~ 將已啟用改回建置中', '2020-06-12 13:55:00 ~ 啟用', '2020-06-12 15:55:00 ~ 將已啟用改回建置中', '2022-05-31 23:16:00 ~ 更改 GPS 位置']","['2020-08-17 13:06:00 ~ 2020-08-18 13:06:00', '2020-08-17 13:06:00 ~ 2020-08-18 13:06:00', '2020-06-09 21:44:00 ~ 2020-06-16 21:44:00', '2020-06-09 21:44:00 ~ 2020-06-15 21:44:00', '2020-06-09 21:44:00 ~ 2020-06-14 21:44:00']"
臺中市永興停車場站(多站),0b961ce7-1700-4281-887c-ae10a84770c1,臺中市北區太原路、永興街(近太原路/永興街路口),已啟用,24.165032,120.681851,24HR,76 ,"['2020-09-15 16:51:00 ~ 新增建置中狀態為 100 (即將啟用)', '2020-10-27 12:36:00 ~ 啟用', '2020-10-27 16:41:00 ~ 更改 GPS 位置', '2020-10-27 19:41:00 ~ 更改 GPS 位置', '2021-02-20 10:51:00 ~ 更改 GPS 位置']","['2021-07-27 03:45:00 ~ 2021-07-28 03:45:00', '2021-04-26 10:00:00 ~ 2021-04-26 18:00:00', '2021-04-26 10:00:00 ~ 2021-04-26 18:00:00', '2021-04-26 10:00:00 ~ 2021-04-26 18:00:00', '2021-04-26 10:00:00 ~ 2021-04-26 18:00:00', '2021-04-26 10:00:00 ~ 2021-04-26 18:00:00', '2021-04-26 10:00:00 ~ 2021-04-26 18:00:00', '2021-04-26 10:00:00 ~ 2021-04-26 18:00:00', '2021-04-26 10:00:00 ~ 2021-04-26 18:00:00', '2021-04-26 10:00:00 ~ 2021-04-26 18:00:00']"
中油國賓加油站,0bc50aa2-e590-4ffe-8b26-ff566513c249,台南市佳里區同安寮1之9號(近NISSAN汽車),已啟用,23.165475,120.18869,24HR,24 ,"['2020-09-28 10:51:00 ~ 新增建置中', '2020-12-03 12:06:00 ~ 啟用', '2020-12-14 09:36:00 ~ 更改地址', '2022-05-31 23:16:00 ~ 更改 GPS 位置']","['2021-07-31 11:49:00 ~ 2021-08-18 11:49:00', '2021-07-31 11:49:00 ~ 2021-08-18 11:49:00', '2021-07-31 11:49:00 ~ 2021-08-18 11:49:00', '2021-07-31 11:49:00 ~ 2021-08-18 11:49:00', '2021-07-31 11:49:00 ~ 2021-08-18 11:49:00', '2021-07-31 11:49:00 ~ 2021-08-18 11:49:00', '2021-07-31 11:49:00 ~ 2021-08-18 11:49:00', '2021-07-31 11:49:00 ~ 2021-08-18 11:49:00', '2021-07-31 11:49:00 ~ 2021-08-18 11:49:00', '2021-07-31 11:49:00 ~ 2021-08-18 11:49:00']"
Gogoro 桃園中華門市店站,0be35a1c-a599-47c3-ae58-c157a8bcdcdd,桃園市桃園區中華路10號(近中華路/民權路口),已啟用,24.991272,121.311672,24HR,24 ,['2022-05-31 23:16:00 ~ 更改 GPS 位置'],[]
中油萬隆加油站,0be5512d-6109-4393-88aa-a382b1dcb9c6,台北市文山區興隆路一段13號(近台北花木批發市場),已啟用,25.004494,121.539192,24HR,30 ,"['2018-12-26 16:05:00 ~ 新增建置中', '2019-01-09 21:55:00 ~ 狀態變更為 100 (即將啟用)', '2019-01-28 15:20:00 ~ 啟用', '2022-05-31 23:16:00 ~ 更改 GPS 位置']","['2020-12-24 18:00:00 ~ 2021-02-28 23:59:00', '2020-12-24 18:00:00 ~ 2021-02-28 23:59:00', '2020-12-24 18:00:00 ~ 2021-02-28 23:59:00', '2020-12-24 18:00:00 ~ 2021-02-28 23:59:00', '2020-12-24 18:00:00 ~ 2021-02-28 23:59:00', '2020-12-24 18:00:00 ~ 2021-02-28 23:59:00', '2020-12-24 18:00:00 ~ 2021-02-28 23:59:00', '2020-12-24 18:00:00 ~ 2021-02-28 23:59:00', '2020-12-24 18:00:00 ~ 2021-02-28 23:59:00', '2020-12-24 18:00:00 ~ 2021-02-28 23:59:00']"
三重後竹圍親子館站,0be82703-e711-4461-aea5-42a03e644061,新北市三重區忠孝路一段37號(近後竹圍親子館閱覽室),已啟用,25.072145,121.491046,24HR,32 ,"['2019-05-10 11:10:00 ~ 新增建置中', '2019-05-17 16:45:00 ~ 狀態變更為 100 (即將啟用)', '2019-06-28 11:45:00 ~ 啟用', '2022-05-31 23:16:00 ~ 更改 GPS 位置']","['2020-10-21 16:14:00 ~ 2020-10-22 16:14:00', '2020-10-17 01:46:00 ~ 2020-10-18 01:46:00', '2020-10-17 01:46:00 ~ 2020-10-18 01:46:00', '2020-10-17 01:46:00 ~ 2020-10-18 01:46:00', '2020-10-17 01:46:00 ~ 2020-10-18 01:46:00', '2020-10-17 01:46:00 ~ 2020-10-18 01:46:00', '2020-10-17 01:46:00 ~ 2020-10-18 01:46:00', '2020-10-13 08:00:00 ~ 2020-10-14 08:00:00', '2020-10-13 08:00:00 ~ 2020-10-14 08:00:00', '2020-10-13 08:00:00 ~ 2020-10-14 08:00:00']"
814生鮮超市龍泉店站(多站),0c033569-d2b3-412e-aba9-6d507b904a0f,屏東縣內埔鄉昭勝路281號(近昭勝路/龍真路),已啟用,22.674976,120.600804,24HR,52 ,[],[]
中油千億加油站,0c0ea3eb-8c64-4fbe-a55f-0a4af49634b3,桃園市平鎮區延平路三段489號(近延平路三段/快速路三段口),已啟用,24.931689,121.197984,24HR,24 ,"['2021-10-24 23:46:00 ~ 新增建置中狀態為 100 (即將啟用)', '2021-10-27 13:41:00 ~ 更改 GPS 位置', '2022-05-31 23:16:00 ~ 更改 GPS 位置']",[]
新北市新店高中地下停車場站(多站),0c2ece40-a575-4612-950d-8ba19c0955a9,新北市新店區三民路161號(近三民路/百忍街43巷3弄交叉口),已啟用,24.974688,121.534401,24HR,50 ,"['2020-04-09 17:10:00 ~ 新增建置中狀態為 100 (即將啟用)', '2020-04-19 11:50:00 ~ 更改 GPS 位置', '2020-04-19 14:50:00 ~ 更改 GPS 位置', '2020-05-08 16:15:00 ~ 啟用', '2020-07-27 14:11:00 ~ 更改地址敘述', '2021-02-20 11:31:00 ~ 更改 GPS 位置', '2022-05-31 23:16:00 ~ 更改 GPS 位置']","['2020-12-04 15:30:00 ~ 2020-12-05 15:30:00', '2020-12-04 15:30:00 ~ 2020-12-05 15:30:00', '2020-09-05 12:58:00 ~ 2020-09-06 12:58:00', '2020-09-05 12:58:00 ~ 2020-09-06 12:58:00', '2020-09-05 12:58:00 ~ 2020-09-06 12:58:00', '2020-09-03 04:46:00 ~ 2020-09-04 04:46:00', '2020-09-03 04:46:00 ~ 2020-09-04 04:46:00', '2020-09-03 04:46:00 ~ 2020-09-04 04:46:00', '2020-08-10 14:46:00 ~ 2020-08-11 14:46:00']"
新北市仁信段平面停車場站(多站),0c500ffe-4eb9-4737-844b-105dc45d834b,新北市三重區元信二街176巷旁(近元信二街及元信二街176巷口),已啟用,25.078995,121.495959,24HR,44 ,"['2020-05-15 16:25:00 ~ 新增建置中狀態為 100 (即將啟用)', '2020-05-19 11:50:00 ~ 啟用', '2022-05-31 23:16:00 ~ 更改 GPS 位置']","['2020-11-02 11:15:00 ~ 2020-11-02 16:00:00', '2020-11-02 11:15:00 ~ 2020-11-02 16:00:00', '2020-09-19 19:29:00 ~ 2020-09-20 19:29:00', '2020-09-19 19:29:00 ~ 2020-09-20 19:29:00', '2020-09-19 19:29:00 ~ 2020-09-20 19:29:00', '2020-09-19 19:29:00 ~ 2020-09-20 19:29:00', '2020-09-19 19:29:00 ~ 2020-09-20 19:29:00', '2020-09-19 19:29:00 ~ 2020-09-20 19:29:00', '2020-09-19 19:29:00 ~ 2020-09-20 19:29:00']"
中油官田工業區加油站,0c72499e-215b-4f24-8dc0-3e65b6320945,台南市官田區二鎮里工業路23-1號(近建業路/工業路口),已啟用,23.210508,120.322963,24HR,16 ,"['2018-12-21 12:20:00 ~ 新增建置中', '2018-12-24 12:05:00 ~ 狀態變更為 100 (即將啟用)', '2019-05-23 12:05:00 ~ 啟用', '2020-07-03 13:20:00 ~ 更改 GPS 位置', '2022-05-31 23:16:00 ~ 更改 GPS 位置']","['2021-05-19 10:00:00 ~ 2021-05-19 17:00:00', '2021-05-19 10:00:00 ~ 2021-05-19 17:00:00', '2021-05-19 10:00:00 ~ 2021-05-19 17:00:00', '2021-05-19 10:00:00 ~ 2021-05-19 17:00:00', '2021-05-19 10:00:00 ~ 2021-05-19 17:00:00', '2021-05-19 10:00:00 ~ 2021-05-19 17:00:00', '2021-05-19 10:00:00 ~ 2021-05-19 17:00:00', '2019-12-22 09:00:00 ~ 2019-12-22 17:00:00', '2019-11-04 17:36:00 ~ 2019-11-05 17:36:00', '2019-11-04 17:23:00 ~ 2019-11-05 17:23:00']"
7-ELEVEN 亮宏店站,0c9fac79-c3c8-4ef2-b3ca-46b2187b77ff,高雄市鳳山區文德里文衡路558號1樓(近文衡路/文安街口),已啟用,22.641637,120.347648,24HR,34 ,"['2018-10-16 18:05:00 ~ 新增建置中', '2018-10-19 18:35:00 ~ 狀態變更為 100 (即將啟用)', '2018-10-26 10:10:00 ~ 啟用', '2022-05-31 23:16:00 ~ 更改 GPS 位置']","['2021-08-13 18:30:00 ~ 2021-08-20 18:00:00', '2021-08-13 18:30:00 ~ 2021-08-20 18:00:00', '2021-08-13 18:30:00 ~ 2021-08-20 18:00:00', '2021-08-13 18:30:00 ~ 2021-08-20 18:00:00', '2021-08-13 18:30:00 ~ 2021-08-20 18:00:00', '2021-08-13 18:30:00 ~ 2021-08-20 18:00:00', '2021-08-13 18:30:00 ~ 2021-08-20 18:00:00', '2021-08-13 18:30:00 ~ 2021-08-20 18:00:00', '2021-08-13 18:30:00 ~ 2021-08-20 18:00:00', '2021-08-13 18:30:00 ~ 2021-08-20 18:00:00']"
MissGreen 美式蔬食餐廳站,0cb4ff83-ed39-4a5c-baac-1be5d494cfb3,台北市大安區敦化南路二段63巷28號(近立人國際國民中小學),已啟用,25.030885,121.55059,24HR,12 ,['2022-05-31 23:16:00 ~ 更改 GPS 位置'],"['2021-08-07 02:52:00 ~ 2021-08-08 02:52:00', '2021-08-04 00:42:00 ~ 2021-08-05 00:42:00', '2021-08-03 23:00:00 ~ 2021-08-04 18:00:00', '2021-08-03 23:00:00 ~ 2021-08-04 18:00:00', '2021-08-03 23:00:00 ~ 2021-08-04 18:00:00', '2021-08-03 23:00:00 ~ 2021-08-04 18:00:00', '2021-08-03 23:00:00 ~ 2021-08-04 18:00:00', '2021-08-03 23:00:00 ~ 2021-08-04 18:00:00', '2021-08-04 00:42:00 ~ 2021-08-05 00:42:00', '2021-08-04 00:42:00 ~ 2021-08-05 00:42:00']"
全家土城頂埔店站,0cc9e3d5-881b-4249-8d90-1db58c0ac921,新北市土城區中央路四段262號(近新北市土城區頂埔國民小學),已啟用,24.95681,121.414774,24HR,34 ,"['2019-10-05 21:55:00 ~ 新增建置中', '2019-10-05 22:35:00 ~ 更改站名', '2019-11-22 13:50:00 ~ 狀態變更為 100 (即將啟用)', '2019-11-29 15:50:00 ~ 更改地址', '2019-11-29 17:10:00 ~ 啟用', '2020-04-01 17:55:00 ~ 將已啟用改回建置中', '2020-04-21 17:45:00 ~ 啟用', '2022-05-31 23:16:00 ~ 更改 GPS 位置']","['2020-12-27 19:53:00 ~ 2020-12-28 19:53:00', '2020-11-15 15:31:00 ~ 2020-11-16 15:31:00', '2020-11-15 15:31:00 ~ 2020-11-16 15:31:00', '2020-11-04 19:49:00 ~ 2020-11-06 19:49:00', '2020-11-04 19:49:00 ~ 2020-11-05 19:49:00', '2020-11-04 19:49:00 ~ 2020-11-05 19:49:00', '2020-11-04 19:49:00 ~ 2020-11-05 19:49:00', '2020-11-04 19:49:00 ~ 2020-11-05 19:49:00', '2020-10-23 19:02:00 ~ 2020-10-24 19:02:00', '2020-10-23 19:02:00 ~ 2020-10-24 19:02:00']"
宏佳騰嘉義興業西店站,0cd80523-b2dd-4678-800f-448cb9ce5e08,嘉義市西區興業西路17.19號(近興業西路/民生南路口),已啟用,23.468395,120.44584,24HR,18 ,"['2019-07-12 10:35:00 ~ 新增建置中', '2019-08-08 11:45:00 ~ 狀態變更為 100 (即將啟用)', '2019-08-29 12:55:00 ~ 啟用', '2022-05-31 23:16:00 ~ 更改 GPS 位置']","['2021-08-15 13:20:00 ~ 2021-08-16 13:20:00', '2021-08-12 00:42:00 ~ 2021-08-13 00:42:00', '2021-08-12 00:42:00 ~ 2021-08-13 00:42:00', '2020-11-30 16:59:00 ~ 2020-12-01 16:59:00', '2020-11-30 16:59:00 ~ 2020-12-01 16:59:00', '2020-11-27 23:26:00 ~ 2020-11-29 23:26:00', '2020-11-27 23:26:00 ~ 2020-11-29 23:26:00', '2020-11-27 23:26:00 ~ 2020-11-29 23:26:00', '2020-11-27 23:26:00 ~ 2020-11-29 23:26:00', '2020-09-26 06:34:00 ~ 2020-09-27 06:34:00']"
全家土城新亞店站,0ce581ba-0851-4ff8-8cd8-840bc5152b39,新北市土城區亞洲路57號(近大安路/亞洲路口),已啟用,24.971136,121.433338,24HR,32 ,"['2019-10-05 22:15:00 ~ 新增建置中', '2019-12-05 23:50:00 ~ 狀態變更為 100 (即將啟用)', '2019-12-12 16:35:00 ~ 啟用', '2022-05-31 23:16:00 ~ 更改 GPS 位置']","['2020-11-20 08:44:00 ~ 2020-11-21 08:44:00', '2020-11-20 08:44:00 ~ 2020-11-21 08:44:00', '2020-11-20 08:44:00 ~ 2020-11-21 08:44:00', '2020-11-20 08:44:00 ~ 2020-11-21 08:44:00', '2020-11-04 19:48:00 ~ 2020-11-05 19:48:00', '2020-11-04 19:48:00 ~ 2020-11-05 19:48:00', '2020-10-12 09:36:00 ~ 2020-10-13 09:36:00', '2020-10-12 09:36:00 ~ 2020-10-13 09:36:00', '2020-07-10 10:55:00 ~ 2020-07-10 15:00:00', '2019-12-12 16:48:00 ~ 2019-12-13 16:48:00']"
臺中市東區區公所站(多站),0ce58a82-f9f6-49fb-b102-77df5119a70f,臺中市東區長福路245號(近長福路/東區五街路口),已啟用,24.137038,120.703963,24HR,50 ,"['2021-03-31 15:26:00 ~ 新增建置中狀態為 100 (即將啟用)', '2021-04-08 17:31:00 ~ 將狀態 100 改回建置中', '2021-04-14 16:11:00 ~ 狀態變更為 100 (即將啟用)', '2021-04-23 14:06:00 ~ 啟用', '2021-05-04 13:16:00 ~ 更改 GPS 位置', '2022-05-31 23:16:00 ~ 更改 GPS 位置']","['2021-04-29 16:00:00 ~ 2021-05-26 18:00:00', '2021-04-29 16:00:00 ~ 2021-05-26 18:00:00', '2021-04-29 16:00:00 ~ 2021-05-26 18:00:00', '2021-04-29 16:00:00 ~ 2021-05-26 18:00:00', '2021-04-29 16:00:00 ~ 2021-05-26 18:00:00', '2021-04-29 16:00:00 ~ 2021-05-26 18:00:00', '2021-04-29 16:00:00 ~ 2021-05-26 18:00:00', '2021-04-29 16:00:00 ~ 2021-05-26 18:00:00', '2021-04-29 16:00:00 ~ 2021-05-26 18:00:00', '2021-04-29 16:00:00 ~ 2021-05-26 18:00:00']"
中油潭子加油站,0cf1e081-4dec-4579-8a7c-cbee17d18d6e,台中市潭子區中山路三段409號(近中山路三段/豐栗路口),已啟用,24.231314,120.708372,24HR,24 ,[],[]
中油台糖龍林加油站,0d5426a2-df79-4b8c-b47f-798cb5929e8b,雲林縣褒忠鄉潮厝46-18號(近台19/縣道158甲),已啟用,23.719955,120.327562,24HR,24 ,"['2021-10-07 18:11:00 ~ 新增建置中', '2021-10-08 15:26:00 ~ 更改站名', '2021-10-13 11:06:00 ~ 狀態變更為 100 (即將啟用)', '2021-11-01 13:16:00 ~ 更改 GPS 位置', '2021-11-25 15:16:00 ~ 更改 GPS 位置', '2022-05-31 23:16:00 ~ 更改 GPS 位置']",[]
深坑帝品苑前停車場站(多站),0d59e7a5-b452-43f1-8ddd-bd4d2f7249d7,新北市深坑區北深路三段165號旁(近東南科技大學),已啟用,25.003395,121.602151,24HR,42 ,"['2019-08-14 14:05:00 ~ 新增建置中狀態為 100 (即將啟用)', '2019-08-22 14:30:00 ~ 啟用', '2022-04-07 10:11:00 ~ 更改站名', '2022-05-31 23:16:00 ~ 更改 GPS 位置']",[]
新北市臺北大學特定區停一停車場站(多站),0d69c60a-3692-4a54-81dc-481fc809d3e6,新北市樹林區大義路與學成路口(近臺北大學特定區停一停車場),已啟用,24.945283,121.378491,24HR,24 ,"['2020-08-13 14:26:00 ~ 新增建置中狀態為 100 (即將啟用)', '2020-10-15 11:26:00 ~ 啟用', '2021-03-22 15:21:00 ~ 更改地址', '2022-05-31 23:16:00 ~ 更改 GPS 位置']","['2021-08-06 05:36:00 ~ 2021-08-07 05:36:00', '2021-08-06 02:38:00 ~ 2021-08-07 02:38:00', '2021-08-06 02:38:00 ~ 2021-08-07 02:38:00', '2021-08-06 02:38:00 ~ 2021-08-07 02:38:00', '2021-08-06 02:38:00 ~ 2021-08-07 02:38:00', '2021-08-06 02:38:00 ~ 2021-08-07 02:38:00', '2021-08-05 08:25:00 ~ 2021-08-06 08:25:00', '2021-08-05 08:25:00 ~ 2021-08-06 08:25:00', '2021-08-03 08:27:00 ~ 2021-08-04 08:27:00', '2021-08-03 08:27:00 ~ 2021-08-04 08:27:00']"
台亞精武加油站,0d74ca55-ff0e-48d0-b65d-457ee3b6f14b,台中市東區精武東路42號(近精武東路與東英路交叉口),已啟用,24.148027,120.706069,24HR,34 ,"['2020-09-26 11:06:00 ~ 更改站名', '2021-06-09 14:31:00 ~ 更改站名', '2022-05-31 23:16:00 ~ 更改 GPS 位置']","['2021-07-08 14:30:00 ~ 2021-07-08 17:30:00', '2021-07-08 14:30:00 ~ 2021-07-08 17:30:00', '2021-07-08 14:30:00 ~ 2021-07-08 17:30:00', '2021-07-08 14:30:00 ~ 2021-07-08 17:30:00', '2021-07-08 14:30:00 ~ 2021-07-08 17:30:00', '2021-07-08 14:30:00 ~ 2021-07-08 17:30:00', '2021-07-08 14:30:00 ~ 2021-07-08 17:30:00', '2021-07-08 14:30:00 ~ 2021-07-08 17:30:00', '2021-07-08 14:30:00 ~ 2021-07-08 17:30:00', '2021-07-08 14:30:00 ~ 2021-07-08 17:30:00']"
花蓮市公所站(多站),0d96c2df-d825-48c9-bb45-c4dca39a5e76,花蓮縣花蓮市林森路252號(近復興街/林森路口),已啟用,23.982203,121.606733,24HR,104 ,[],[]
全聯台南裕農店站(多站),0daa7afb-44aa-406b-b7fe-a149a9e9b7e4,台南市東區裕農路400號(近裕農路/裕農路389巷),已啟用,22.98758,120.231162,24HR,44 ,"['2020-07-17 10:46:00 ~ 新增建置中', '2020-07-17 14:06:00 ~ 狀態變更為 100 (即將啟用)', '2020-08-17 10:56:00 ~ 啟用', '2021-05-14 12:31:00 ~ 更改地址敘述', '2022-05-31 23:16:00 ~ 更改 GPS 位置']",[]
統一速邁樂龍潭二加油站(多站),0dbb132d-a316-40db-8d82-f5277a6aee64,桃園市龍潭區中興路448號(近國軍桃園總醫院),已啟用,24.872387,121.228071,24HR,50 ,"['2021-05-18 12:06:00 ~ 新增建置中狀態為 100 (即將啟用)', '2021-05-20 09:31:00 ~ 更改 GPS 位置', '2021-05-20 12:56:00 ~ 啟用', '2022-05-31 23:16:00 ~ 更改 GPS 位置']",[]
宏佳騰新竹北大店站,0dd883e2-ec21-480e-abbd-dccdfb43e701,新竹市北區北大路350號(近北大路與少年街口),已啟用,24.805695,120.961431,24HR,34 ,"['2020-04-07 14:15:00 ~ 新增建置中', '2020-04-10 10:20:00 ~ 狀態變更為 100 (即將啟用)', '2020-04-17 10:20:00 ~ 啟用', '2022-05-31 23:16:00 ~ 更改 GPS 位置']","['2021-04-28 13:00:00 ~ 2021-04-28 18:00:00', '2021-04-28 13:00:00 ~ 2021-04-28 18:00:00', '2021-04-28 13:00:00 ~ 2021-04-28 18:00:00', '2021-04-28 13:00:00 ~ 2021-04-28 18:00:00', '2021-04-28 13:00:00 ~ 2021-04-28 18:00:00', '2021-04-28 13:00:00 ~ 2021-04-28 18:00:00', '2021-04-28 13:00:00 ~ 2021-04-28 18:00:00', '2021-04-28 13:00:00 ~ 2021-04-28 18:00:00', '2021-04-28 13:00:00 ~ 2021-04-28 18:00:00', '2020-10-30 16:11:00 ~ 2020-10-31 16:11:00']"
中油大埔加油站,0e0b6136-29a5-4460-a245-b42fe603afb5,新北市三峽區中正路二段165號(近中正路二段/中正路二段167巷口),已啟用,24.915079,121.366463,24HR,34 ,"['2019-01-14 13:00:00 ~ 新增建置中', '2019-01-15 11:50:00 ~ 狀態變更為 100 (即將啟用)', '2019-01-28 13:00:00 ~ 啟用', '2022-05-31 23:16:00 ~ 更改 GPS 位置']","['2021-05-19 09:40:00 ~ 2021-05-19 12:30:00', '2021-05-19 09:40:00 ~ 2021-05-19 12:30:00', '2020-11-20 11:00:00 ~ 2020-11-20 12:30:00', '2020-09-28 15:05:00 ~ 2020-09-29 15:05:00', '2020-09-28 15:05:00 ~ 2020-09-29 15:05:00', '2020-07-24 03:34:00 ~ 2020-07-25 03:34:00', '2020-07-24 03:34:00 ~ 2020-07-25 03:34:00', '2020-06-17 10:50:00 ~ 2020-06-17 13:10:00', '2020-02-20 13:30:00 ~ 2020-02-20 16:00:00', '2020-02-04 11:46:00 ~ 2020-02-05 11:46:00']"
臺北市前港公園站(多站),0e14d601-dff6-4868-bc42-9c45897a3efb,臺北市士林區前港街45號(近前港街/後港街口),已啟用,25.084961,121.521316,24HR,48 ,[],[]
全家中壢青埔店站(多站),0e2ef9bd-e316-4af7-8f4f-d00091fe09a3,桃園市中壢區洽溪里7鄰領航北路二段66號(近領航北路二段/民權路四段交叉口),已啟用,25.00731,121.20221,24HR,50 ,"['2019-10-05 16:35:00 ~ 新增建置中', '2019-11-08 22:16:00 ~ 狀態變更為 100 (即將啟用)', '2019-11-15 11:00:00 ~ 啟用', '2021-12-13 17:46:00 ~ 更改地址敘述']",[]
全聯嘉義民國店站,0e43a809-0e81-4059-be05-d78a8d042686,嘉義市東區民國路30號(近民國路/朝陽街口),已啟用,23.475652,120.460929,24HR,32 ,"['2019-11-01 10:25:00 ~ 新增建置中', '2019-11-13 11:25:00 ~ 狀態變更為 100 (即將啟用)', '2019-11-22 12:10:00 ~ 啟用', '2020-07-27 19:51:00 ~ 更改 GPS 位置', '2020-07-27 20:51:00 ~ 更改 GPS 位置']","['2021-08-11 12:54:00 ~ 2021-08-12 12:54:00', '2020-08-14 07:30:00 ~ 2020-08-18 18:00:00', '2020-08-14 07:30:00 ~ 2020-08-18 18:00:00', '2020-08-14 07:30:00 ~ 2020-08-18 18:00:00', '2020-08-14 07:30:00 ~ 2020-08-18 18:00:00', '2020-08-14 07:30:00 ~ 2020-08-18 18:00:00', '2020-08-14 07:30:00 ~ 2020-08-18 18:00:00', '2020-08-14 07:30:00 ~ 2020-08-18 18:00:00', '2020-08-14 07:30:00 ~ 2020-08-18 18:00:00', '2020-08-14 07:30:00 ~ 2020-08-18 18:00:00']"
北昌路停車場站(多站),0e581ba0-80d5-4fc1-9b07-6c4ed6386a2e,高雄市鳳山區北昌二街(近北昌二街/北昌路口),已啟用,22.64624,120.37233,24HR,48 ,"['2020-06-05 17:15:00 ~ 新增建置中', '2020-07-17 11:06:00 ~ 新增建置中狀態為 100 (即將啟用)', '2020-11-20 21:41:00 ~ 啟用']",[]
新北市養工處樹林大安路站(多站),0e5e33da-fa89-40bb-b2fa-eee0cf9ced07,新北市樹林區大安路118號(近家樂福樹林店),已啟用,24.997698,121.422106,24HR,50 ,"['2020-05-06 16:20:00 ~ 新增建置中狀態為 100 (即將啟用)', '2020-05-28 17:30:00 ~ 啟用', '2022-05-31 23:16:00 ~ 更改 GPS 位置']","['2021-05-31 18:45:00 ~ 2021-06-01 18:00:00', '2021-05-31 18:45:00 ~ 2021-06-01 18:00:00', '2021-05-31 18:45:00 ~ 2021-06-01 18:00:00', '2021-05-31 18:45:00 ~ 2021-06-01 18:00:00', '2021-05-31 18:45:00 ~ 2021-06-01 18:00:00', '2021-05-31 18:45:00 ~ 2021-06-01 18:00:00', '2021-05-31 18:45:00 ~ 2021-06-01 18:00:00', '2021-05-31 18:45:00 ~ 2021-06-01 18:00:00', '2021-05-31 18:45:00 ~ 2021-06-01 18:00:00', '2021-05-31 18:45:00 ~ 2021-06-01 18:00:00']"
全家政富店站,0e7284ac-6786-4ff9-9293-b9f4c713c31a,台北市文山區指南路二段145號(近政治大學),已啟用,24.987453,121.577154,24HR,18 ,"['2019-10-25 11:00:00 ~ 更改地址', '2019-12-24 07:25:00 ~ 狀態變更為 100 (即將啟用)', '2019-12-27 12:25:00 ~ 啟用', '2019-12-27 14:05:00 ~ 更改地址', '2022-05-31 23:16:00 ~ 更改 GPS 位置']","['2020-11-12 11:12:00 ~ 2020-11-13 11:12:00', '2020-10-07 09:55:00 ~ 2020-10-07 13:30:00', '2020-10-07 09:55:00 ~ 2020-10-07 13:30:00', '2020-10-07 09:55:00 ~ 2020-10-07 13:30:00', '2020-10-07 09:55:00 ~ 2020-10-07 13:30:00', '2020-09-17 02:56:00 ~ 2020-09-18 02:56:00', '2020-09-17 02:56:00 ~ 2020-09-18 02:56:00', '2020-09-17 02:56:00 ~ 2020-09-18 02:56:00', '2020-09-17 02:56:00 ~ 2020-09-18 02:56:00', '2020-09-12 12:05:00 ~ 2020-09-13 12:05:00']"
新北市永和仁愛公園站(永平路側)B,0e7a940e-7c3b-4c21-819c-f0d5379d20c3,新北市永和區永平路288號對面(近永平路/永平路290巷2弄口),已啟用,25.012028,121.507917,24HR,26 ,[],[]
新北市國光公園停車場站(多站),0eb6d6e9-e8c6-437a-a07c-32a6a0ac7957,新北市板橋區中正路379巷3弄與中正路325巷口(近國光國小),已啟用,25.019846,121.453853,24HR,50 ,"['2020-10-20 17:36:00 ~ 新增建置中狀態為 100 (即將啟用)', '2020-11-11 16:51:00 ~ 更改 GPS 位置', '2021-04-08 11:31:00 ~ 啟用', '2022-05-31 23:16:00 ~ 更改 GPS 位置']",[]
Global Mall 屏東站(多站),0effd2cc-a8d9-4447-ad78-9442c41e513a,屏東縣屏東市仁愛路90號(近屏東女中),已啟用,22.673036,120.49305,24HR,36 ,"['2020-06-12 20:15:00 ~ 將已啟用改回建置中', '2020-06-12 22:15:00 ~ 啟用']",[]
Gogoro 安平中華門市站,0f4f9a7f-06a1-462d-9372-22607ca69fb0,台南市安平區中華西路二段57號(近家樂福安平店),已啟用,22.988071,120.186714,24HR,28 ,['2020-06-25 16:37:00 ~ 更改站名'],"['2021-08-17 20:15:00 ~ 2021-08-18 20:15:00', '2021-08-17 20:15:00 ~ 2021-08-18 20:15:00', '2021-08-17 20:15:00 ~ 2021-08-18 20:15:00', '2021-08-17 11:57:00 ~ 2021-08-18 11:57:00', '2021-08-13 17:29:00 ~ 2021-08-14 17:29:00', '2021-08-09 14:05:00 ~ 2021-08-10 14:05:00', '2021-06-10 13:00:00 ~ 2021-06-10 18:00:00', '2021-06-10 13:00:00 ~ 2021-06-10 18:00:00', '2021-06-10 13:00:00 ~ 2021-06-10 18:00:00', '2021-06-10 13:00:00 ~ 2021-06-10 18:00:00']"
臺北市興隆市場站(多站),0f5b9195-addf-4868-bdfd-8c6370124357,臺北市文山區興隆路二段97號(近興隆路二段/興隆路二段123巷交叉口),已啟用,24.999647,121.547342,24HR,78 ,['2022-05-31 23:16:00 ~ 更改 GPS 位置'],[]
全家霧峰朝科大店站(多站),0f66bd2a-96a6-4219-917d-ba98a3a262f3,台中市霧峰區吉峰東路62號(近吉峰東路/民生路290巷口),已啟用,24.074542,120.714772,24HR,40 ,"['2019-10-05 15:35:00 ~ 新增建置中', '2019-11-19 23:55:00 ~ 狀態變更為 100 (即將啟用)', '2019-11-29 14:10:00 ~ 啟用', '2019-12-11 15:55:00 ~ 更改 GPS 位置', '2022-05-31 23:16:00 ~ 更改 GPS 位置']","['2021-05-26 10:00:00 ~ 2021-05-26 18:00:00', '2021-05-26 10:00:00 ~ 2021-05-26 18:00:00', '2021-05-26 10:00:00 ~ 2021-05-26 18:00:00', '2021-05-26 10:00:00 ~ 2021-05-26 18:00:00', '2021-05-26 10:00:00 ~ 2021-05-26 18:00:00', '2021-05-26 10:00:00 ~ 2021-05-26 18:00:00', '2021-05-26 10:00:00 ~ 2021-05-26 18:00:00', '2021-05-26 10:00:00 ~ 2021-05-26 18:00:00', '2021-05-26 10:00:00 ~ 2021-05-26 18:00:00', '2021-05-26 10:00:00 ~ 2021-05-26 18:00:00']"
中油建工路加油站,0f69395c-98bd-45d0-b2d0-45b711d1f45e,高雄市三民區建工路566號(近中華電信對面),已啟用,22.650694,120.324561,24HR,22 ,"['2021-09-10 11:36:00 ~ 更改 GPS 位置', '2022-05-31 23:16:00 ~ 更改 GPS 位置']","['2021-08-17 18:33:00 ~ 2021-08-18 18:33:00', '2021-08-17 18:33:00 ~ 2021-08-18 18:33:00', '2021-08-12 10:29:00 ~ 2021-08-13 10:29:00', '2021-08-12 10:29:00 ~ 2021-08-13 10:29:00', '2021-08-02 18:01:00 ~ 2021-08-03 18:01:00', '2021-08-02 18:01:00 ~ 2021-08-03 18:01:00', '2021-08-02 18:01:00 ~ 2021-08-03 18:01:00', '2020-12-01 00:40:00 ~ 2020-12-02 00:40:00', '2020-12-01 00:40:00 ~ 2020-12-02 00:40:00', '2020-12-01 00:40:00 ~ 2020-12-02 00:40:00']"
中油豐田加油站,0f746101-200c-4e68-8624-0ecc7206adb9,屏東縣內埔鄉中正路467號(近中正路/建新路),已啟用,22.634658,120.540842,24HR,24 ,"['2021-10-15 09:46:00 ~ 新增建置中', '2021-10-22 03:11:00 ~ 狀態變更為 100 (即將啟用)', '2021-12-01 15:21:00 ~ 啟用', '2022-05-31 23:16:00 ~ 更改 GPS 位置']",[]
全聯台南新化店站,0f949ea3-7352-49a1-92fd-01b3c386e6ee,台南市新化區中正路540之1號(近中正路/中正路542巷),已啟用,23.039989,120.30702,24HR,24 ,"['2020-07-17 10:46:00 ~ 新增建置中', '2020-07-17 11:31:00 ~ 狀態變更為 100 (即將啟用)', '2020-08-25 12:16:00 ~ 啟用', '2021-05-14 12:31:00 ~ 更改地址敘述', '2022-05-31 23:16:00 ~ 更改 GPS 位置']","['2021-07-30 08:18:00 ~ 2021-07-31 08:18:00', '2021-07-30 08:18:00 ~ 2021-07-31 08:18:00', '2021-01-04 17:49:00 ~ 2021-01-05 17:49:00']"
台電土城服務所站(多站),0faa896f-24d9-4f99-8635-b5b4b6fa64fa,新北市土城區中央路二段263號(近央路二段/興城路口),已啟用,24.970886,121.439843,24HR,50 ,[],[]
北基百利瑞光加油站(多站),0fabca87-416b-4d42-8d7e-6e20ee9a7a16,屏東縣屏東市華山里瑞光路三段202號(近瑞光路三段/中正路口),已啟用,22.691814,120.502903,24HR,50 ,"['2020-09-10 18:06:00 ~ 新增建置中狀態為 100 (即將啟用)', '2020-10-08 13:01:00 ~ 啟用', '2021-05-14 15:51:00 ~ 更改地址敘述', '2022-05-31 23:16:00 ~ 更改 GPS 位置']",[]
中油鹿港中正路加油站,0fcf2327-6ccd-4f13-8bb4-948d54ac8ed8,彰化縣福興鄉中正路88號(近中正路/鹿興路口),已啟用,24.050184,120.441946,24HR,24 ,[],[]
新北市環河西路二段站(多站),0fd9ed78-a587-467a-8e8d-2b2dff32a47b,新北市永和區環河西路二段5號前(近永成市民活動中心),建置中(其他狀態100),25.017351,121.510265,24HR,50 ,[],[]
台北喜來登大飯店站(多站),0fdcbbec-affe-45be-a212-5935d6e287a5,台北市中正區忠孝東路一段12號(近忠孝東路一段/鎮江街口),已啟用,25.044637,121.521595,24HR,82 ,"['2020-09-24 17:46:00 ~ 新增建置中狀態為 100 (即將啟用)', '2020-10-10 23:01:00 ~ 啟用', '2022-05-31 23:16:00 ~ 更改 GPS 位置']","['2021-08-12 19:18:00 ~ 2021-08-14 19:18:00', '2021-08-12 19:18:00 ~ 2021-08-14 19:18:00', '2021-08-12 19:18:00 ~ 2021-08-14 19:18:00', '2021-08-12 19:18:00 ~ 2021-08-14 19:18:00', '2021-08-12 19:18:00 ~ 2021-08-14 19:18:00', '2021-08-12 19:18:00 ~ 2021-08-14 19:18:00', '2021-08-12 19:18:00 ~ 2021-08-14 19:18:00', '2021-08-12 19:18:00 ~ 2021-08-14 19:18:00', '2021-08-12 19:18:00 ~ 2021-08-14 19:18:00', '2021-08-12 19:18:00 ~ 2021-08-14 19:18:00']"
耕讀園台中市政店站(多站),0ff3a696-a686-4b7e-a2f0-0dfa164bbc6b,台中市西屯區市政路109號(近惠文五街/市政路口),已啟用,24.157559,120.639992,24HR,50 ,"['2020-11-05 14:06:00 ~ 新增建置中', '2020-11-13 16:36:00 ~ 狀態變更為 100 (即將啟用)', '2020-11-13 17:36:00 ~ 啟用', '2022-05-31 23:16:00 ~ 更改 GPS 位置']","['2021-08-07 19:48:00 ~ 2021-08-08 19:48:00', '2021-08-07 19:24:00 ~ 2021-08-08 19:24:00', '2021-07-31 09:30:00 ~ 2021-08-01 09:30:00', '2021-05-06 10:00:00 ~ 2021-05-06 18:00:00', '2021-05-06 10:00:00 ~ 2021-05-06 18:00:00', '2021-05-06 10:00:00 ~ 2021-05-06 18:00:00', '2021-05-06 10:00:00 ~ 2021-05-06 18:00:00', '2021-05-06 10:00:00 ~ 2021-05-06 18:00:00', '2021-05-06 10:00:00 ~ 2021-05-06 18:00:00', '2021-05-06 10:00:00 ~ 2021-05-06 18:00:00']"
全家太平新豐年店站(多站),0ffacce1-7446-4861-85a6-febf814079b2,台中市太平區大源十八街1號1樓(近大源十八街/大源路口),已啟用,24.141833,120.724601,24HR,38 ,"['2019-10-05 13:10:00 ~ 新增建置中', '2019-10-23 21:20:00 ~ 狀態變更為 100 (即將啟用)', '2019-10-31 16:45:00 ~ 啟用', '2019-12-02 18:15:00 ~ 更改地址敘述', '2022-05-31 23:16:00 ~ 更改 GPS 位置']","['2020-10-26 16:08:00 ~ 2020-10-27 16:08:00', '2020-08-16 08:42:00 ~ 2020-08-19 08:42:00', '2020-08-16 08:42:00 ~ 2020-08-19 08:42:00', '2020-08-16 08:42:00 ~ 2020-08-19 08:42:00', '2020-08-16 08:42:00 ~ 2020-08-19 08:42:00', '2020-08-16 08:42:00 ~ 2020-08-19 08:42:00', '2020-08-16 08:42:00 ~ 2020-08-19 08:42:00', '2020-08-16 08:42:00 ~ 2020-08-19 08:42:00', '2020-08-16 08:42:00 ~ 2020-08-19 08:42:00', '2020-08-16 08:42:00 ~ 2020-08-19 08:42:00']"
臺中市大墩停車場站(多站),1012f314-52e3-4f31-8fa6-8643ec9de286,臺中市西屯區大容東街與大容東一街口(近大容東街/大容東一街口),已啟用,24.156259,120.648252,24HR,50 ,"['2020-11-12 18:26:00 ~ 新增建置中', '2020-11-27 18:26:00 ~ 狀態變更為 100 (即將啟用)', '2020-12-01 14:36:00 ~ 啟用']",[]
中油歸仁加油站,10180c29-2eaa-40a2-ae0d-623b1441ca84,台南市歸仁區中山路三段201號(近中山路三段/中山九街口),已啟用,22.967883,120.282746,24HR,34 ,"['2018-12-26 12:45:00 ~ 新增建置中', '2019-01-04 23:35:00 ~ 狀態變更為 100 (即將啟用)', '2019-01-11 11:15:00 ~ 啟用', '2019-12-06 12:50:00 ~ 狀態變更為 100 (即將啟用)', '2020-07-03 14:40:00 ~ 更改 GPS 位置', '2022-05-31 23:16:00 ~ 更改 GPS 位置']","['2021-05-02 07:00:00 ~ 2021-05-04 18:00:00', '2021-05-02 07:00:00 ~ 2021-05-04 18:00:00', '2021-05-02 07:00:00 ~ 2021-05-04 18:00:00', '2021-05-02 07:00:00 ~ 2021-05-04 18:00:00', '2021-05-02 07:00:00 ~ 2021-05-04 18:00:00', '2021-05-02 07:00:00 ~ 2021-05-03 18:00:00', '2021-05-02 07:00:00 ~ 2021-05-03 18:00:00', '2021-05-02 07:00:00 ~ 2021-05-03 18:00:00', '2021-05-02 07:00:00 ~ 2021-05-03 18:00:00', '2021-05-02 07:00:00 ~ 2021-05-03 18:00:00']"
新北市基層選手游泳訓練館站(多站),101c432b-2736-4367-b04c-eb1a3ff4ed2c,新北市永和區民生路31號對面(近民生路/四維街口),已啟用,24.998371,121.52273,24HR,48 ,[],[]
台灣表面黏著科技站,101f5f56-0c7b-4570-b58d-14e14c0c9233,桃園市桃園區桃鶯路437號(近可口可樂世界博物館),已啟用,24.978821,121.321589,24HR,20 ,['2022-05-31 23:16:00 ~ 更改 GPS 位置'],"['2021-08-07 09:05:00 ~ 2021-08-10 09:05:00', '2021-08-07 10:00:00 ~ 2021-08-09 18:00:00', '2021-08-07 10:00:00 ~ 2021-08-09 18:00:00', '2021-08-07 10:00:00 ~ 2021-08-09 18:00:00', '2021-08-07 10:00:00 ~ 2021-08-09 18:00:00', '2021-08-07 10:00:00 ~ 2021-08-09 18:00:00', '2021-08-07 10:00:00 ~ 2021-08-09 18:00:00', '2021-08-07 10:00:00 ~ 2021-08-09 18:00:00', '2021-08-07 10:00:00 ~ 2021-08-09 18:00:00', '2021-08-07 10:00:00 ~ 2021-08-09 18:00:00']"
中油大昌八八加油站,10470a93-ed46-441f-a495-d5754a8259b4,桃園市龍潭區大昌路二段80號(近大昌路二段/健行路交叉口),已啟用,24.866703,121.221707,24HR,24 ,[],[]
全聯新竹振興店站(多站),107865e6-46b2-4beb-9ced-828de900acb7,新竹市東區振興路116、118號(近振興路與振興路109巷口),已啟用,24.795364,120.960809,24HR,48 ,"['2021-09-23 09:16:00 ~ 新增建置中', '2021-09-24 16:21:00 ~ 狀態變更為 100 (即將啟用)', '2021-09-30 14:01:00 ~ 啟用', '2022-05-31 23:16:00 ~ 更改 GPS 位置']",[]
HiLife 竹北皇家店站,10c4cbac-5498-43d6-90e2-d5a21f731376,新竹縣竹北市莊敬三路117號(近莊敬三路與勝利六街口),已啟用,24.824858,121.02618,24HR,32 ,"['2019-12-24 10:25:00 ~ 新增建置中狀態為 100 (即將啟用)', '2019-12-27 10:45:00 ~ 啟用', '2022-05-31 23:16:00 ~ 更改 GPS 位置']","['2021-01-15 14:00:00 ~ 2021-01-15 17:40:00', '2021-01-15 14:00:00 ~ 2021-01-15 19:00:00', '2021-01-15 14:00:00 ~ 2021-01-15 19:00:00', '2021-01-15 14:00:00 ~ 2021-01-15 19:00:00', '2021-01-15 14:00:00 ~ 2021-01-15 19:00:00', '2021-01-15 14:00:00 ~ 2021-01-15 19:00:00', '2021-01-15 14:00:00 ~ 2021-01-15 19:00:00', '2021-01-15 14:00:00 ~ 2021-01-15 19:00:00', '2021-01-15 14:00:00 ~ 2021-01-15 19:00:00', '2021-01-15 14:00:00 ~ 2021-01-15 19:00:00']"
全聯鳳山國泰店站,10ce873c-b233-4556-9caf-f66ccf0b207d,高雄市鳳山區國泰路一段2號(近中山公園),已啟用,22.614691,120.362511,24HR,32 ,['2022-05-31 23:16:00 ~ 更改 GPS 位置'],"['2021-08-13 18:30:00 ~ 2021-08-20 18:00:00', '2021-08-13 18:30:00 ~ 2021-08-20 18:00:00', '2021-08-13 18:30:00 ~ 2021-08-20 18:00:00', '2021-08-13 18:30:00 ~ 2021-08-20 18:00:00', '2021-08-13 18:30:00 ~ 2021-08-20 18:00:00', '2021-08-13 18:30:00 ~ 2021-08-20 18:00:00', '2021-08-13 18:30:00 ~ 2021-08-20 18:00:00', '2021-08-13 18:30:00 ~ 2021-08-20 18:00:00', '2021-08-13 18:30:00 ~ 2021-08-20 18:00:00', '2021-08-13 18:30:00 ~ 2021-08-20 18:00:00']"
中油義和加油站,10e4ebb6-6428-47ae-85df-6266dabca45f,雲林縣莿桐鄉三和37-5號(近埤源派出所),已啟用,23.775305,120.478746,24HR,18 ,"['2018-12-26 14:45:00 ~ 新增建置中', '2019-01-03 18:20:00 ~ 狀態變更為 100 (即將啟用)', '2019-01-30 18:55:00 ~ 啟用']","['2020-01-17 12:07:00 ~ 2020-01-18 12:07:00', '2020-01-07 15:26:00 ~ 2020-01-08 15:26:00', '2019-12-28 05:49:00 ~ 2019-12-29 05:49:00', '2019-12-26 18:00:00 ~ 2019-12-27 18:00:00', '2019-12-25 18:00:00 ~ 2019-12-26 18:00:00', '2019-12-24 18:00:00 ~ 2019-12-25 18:00:00', '2019-12-23 08:00:00 ~ 2019-12-24 18:00:00', '2019-11-29 09:28:00 ~ 2019-11-30 09:28:00', '2019-11-22 13:57:00 ~ 2019-11-23 13:57:00', '2019-10-17 11:23:00 ~ 2019-10-18 11:23:00']"
全聯大溪文化店站,1167b3cd-9bab-4a9f-a8de-b585b0744333,桃園市大溪區文化路67號(近文化路/文化路75巷交岔口),已啟用,24.881696,121.293515,24HR,32 ,"['2018-10-05 12:20:00 ~ 狀態變更為 100 (即將啟用)', '2018-10-12 13:30:00 ~ 啟用', '2019-07-08 17:55:00 ~ 更改地址敘述', '2019-11-29 16:10:00 ~ 更改地址', '2022-05-31 23:16:00 ~ 更改 GPS 位置']","['2021-03-12 09:50:00 ~ 2021-03-12 11:50:00', '2021-03-12 09:50:00 ~ 2021-03-12 11:50:00', '2020-09-18 21:02:00 ~ 2020-09-19 21:02:00', '2020-09-18 21:02:00 ~ 2020-09-19 21:02:00', '2020-09-18 21:02:00 ~ 2020-09-19 21:02:00', '2020-09-18 12:55:00 ~ 2020-09-18 14:20:00', '2020-09-11 10:39:00 ~ 2020-09-12 10:39:00', '2020-09-02 12:40:00 ~ 2020-09-03 12:40:00', '2020-09-02 12:40:00 ~ 2020-09-03 12:40:00', '2020-09-02 12:40:00 ~ 2020-09-03 12:40:00']"
7-ELEVEN 山民店站(多站),116cddaa-543c-4b42-9cda-24e43944bf82,桃園市龜山區三民路100號(近三民路/壽山路交叉口),已啟用,24.995423,121.324254,24HR,50 ,"['2019-05-09 10:25:00 ~ 新增建置中', '2019-05-10 14:30:00 ~ 狀態變更為 100 (即將啟用)', '2019-05-17 15:05:00 ~ 啟用', '2019-12-06 15:30:00 ~ 更改地址敘述', '2022-05-31 23:16:00 ~ 更改 GPS 位置']",[]
中油中苗加油站,11aacec2-81eb-4847-824a-9fbf6bf7c3df,苗栗縣苗栗市中正路442號(近大川醫院),已啟用,24.560281,120.821368,24HR,26 ,"['2019-10-03 10:25:00 ~ 將已啟用改回建置中', '2019-11-05 12:10:00 ~ 啟用', '2019-11-05 15:15:00 ~ 更改站名', '2019-12-17 12:25:00 ~ 更改站名']","['2021-07-05 14:00:00 ~ 2021-07-05 18:00:00', '2021-07-05 14:00:00 ~ 2021-07-05 18:00:00', '2021-07-05 14:00:00 ~ 2021-07-05 18:00:00', '2021-04-03 13:35:00 ~ 2021-04-03 16:00:00', '2021-04-03 13:35:00 ~ 2021-04-03 16:00:00', '2021-04-03 13:35:00 ~ 2021-04-03 16:00:00', '2020-12-29 10:30:00 ~ 2020-12-29 14:00:00', '2020-12-29 10:30:00 ~ 2020-12-29 14:00:00', '2020-12-29 10:30:00 ~ 2020-12-29 14:00:00', '2020-11-30 11:45:00 ~ 2020-12-01 11:45:00']"
屏東縣琉球鄉立圖書館站,11dd8d75-1187-4021-a5d4-0d6cdccce7ef,屏東縣琉球鄉中山路49之16號(近中山路/民權路),已啟用,22.34812,120.378297,24HR,24 ,[],[]
中油福樂加油站,1218fbe6-82f6-4656-a784-aff57a4d8ad8,彰化縣福興鄉員鹿路二段11號(近員鹿路二段/員鹿路二段7巷口),已啟用,24.03622,120.43618,24HR,24 ,[],[]
中油金田加油站,12329352-1cb8-4336-a641-ae221b242e1f,台南市新市區中山路10-16號(近139縣道/中山路口),建置中(其他狀態100),23.08454,120.304551,24HR,24 ,[],[]
7-ELEVEN 芬農店站,12374765-6cdd-4a94-a53d-dd812c95af91,彰化縣芬園鄉彰南路四段337號(近彰南路四段/竹東路口),已啟用,24.018041,120.627379,24HR,24 ,[],[]
全家太平新興中店站(多站),124237dc-6745-4748-93cc-93d222bdd3ca,台中市太平區永平南路1號(近永平南路/中興東路口),已啟用,24.13053,120.720918,24HR,46 ,"['2019-10-05 16:55:00 ~ 新增建置中', '2019-11-20 00:15:00 ~ 狀態變更為 100 (即將啟用)', '2019-12-10 13:40:00 ~ 啟用', '2020-06-12 10:05:00 ~ 將已啟用改回建置中', '2020-06-12 13:55:00 ~ 啟用', '2020-06-12 15:55:00 ~ 將已啟用改回建置中', '2020-06-12 18:55:00 ~ 啟用', '2022-01-17 13:51:00 ~ 更改 GPS 位置', '2022-05-31 23:16:00 ~ 更改 GPS 位置']",[]
中油安順加油站,12744028-baa2-49f3-bcb3-3a9903b85313,台南市安南區安中路一段650號(近安中路一段/安中路一段698巷口),已啟用,23.043006,120.195624,24HR,30 ,"['2018-12-14 11:15:00 ~ 新增建置中', '2018-12-17 09:50:00 ~ 狀態變更為 100 (即將啟用)', '2018-12-25 16:40:00 ~ 啟用', '2020-07-03 13:20:00 ~ 更改 GPS 位置', '2022-05-31 23:16:00 ~ 更改 GPS 位置']","['2020-11-15 06:42:00 ~ 2020-11-16 06:42:00', '2020-11-15 06:42:00 ~ 2020-11-16 06:42:00', '2020-11-15 06:42:00 ~ 2020-11-16 06:42:00', '2020-11-15 06:42:00 ~ 2020-11-16 06:42:00', '2020-11-15 06:42:00 ~ 2020-11-16 06:42:00', '2020-07-08 21:03:00 ~ 2020-07-10 21:03:00', '2020-07-08 21:03:00 ~ 2020-07-10 21:03:00', '2020-07-08 21:03:00 ~ 2020-07-10 21:03:00', '2020-07-08 21:03:00 ~ 2020-07-10 21:03:00', '2020-07-08 21:03:00 ~ 2020-07-10 21:03:00']"
臺鐵佳冬站(多站),1276efde-25ff-4ea0-aba8-7773dba5d62f,屏東縣佳冬鄉復興路21號(近復興路/佳和路口),已啟用,22.414057,120.547902,24HR,46 ,"['2021-05-24 17:31:00 ~ 新增建置中', '2021-06-01 15:11:00 ~ 狀態變更為 100 (即將啟用)', '2021-06-02 15:26:00 ~ 啟用', '2021-06-04 10:11:00 ~ 更改 GPS 位置', '2022-05-31 23:16:00 ~ 更改 GPS 位置']",[]
臺北市南港自來水加壓站(多站),127a0a11-12d3-4e8d-81a3-9dff0daea9e6,臺北市南港區研究院路二段1號(近大坑街/研究院路二段3巷之間),已啟用,25.048139,121.61638,24HR,46 ,[],[]
中油初鹿加油站,1286276d-19c7-4d8b-b4f5-39a19e538ce7,台東縣卑南鄉明峰村13鄰忠孝路32號(近初鹿國中),已啟用,22.853035,121.092317,24HR,26 ,"['2018-11-29 22:45:00 ~ 新增建置中', '2018-11-30 10:15:00 ~ 更改站名', '2018-12-21 20:45:00 ~ 狀態變更為 100 (即將啟用)', '2019-01-19 13:55:00 ~ 啟用', '2019-02-21 18:30:00 ~ 更改地址']","['2021-01-04 09:08:00 ~ 2021-01-04 12:10:00', '2021-01-04 09:08:00 ~ 2021-01-04 12:10:00', '2021-01-04 09:08:00 ~ 2021-01-04 12:10:00', '2021-01-04 09:08:00 ~ 2021-01-04 12:10:00', '2020-08-25 08:03:00 ~ 2020-08-26 08:03:00', '2020-08-21 08:17:00 ~ 2020-08-22 08:17:00', '2020-08-04 16:12:00 ~ 2020-08-05 16:12:00', '2020-07-25 17:42:00 ~ 2020-07-26 17:42:00', '2020-07-24 10:00:00 ~ 2020-07-24 13:30:00', '2020-02-06 15:19:00 ~ 2020-02-07 15:19:00']"
Gogoro 台中三民店站,12a512d0-58bc-4e2b-b782-40ff6f490636,台中市北區三民路三段146號(近中友百貨),已啟用,24.151344,120.684871,24HR,18 ,"['2019-04-21 01:05:00 ~ 將已啟用改回建置中', '2019-04-22 07:50:00 ~ 啟用', '2022-05-31 23:16:00 ~ 更改 GPS 位置']","['2021-06-11 09:30:00 ~ 2021-06-11 18:00:00', '2021-06-11 09:30:00 ~ 2021-06-11 18:00:00', '2021-06-11 09:30:00 ~ 2021-06-11 18:00:00', '2021-06-11 09:30:00 ~ 2021-06-11 18:00:00', '2021-06-11 09:30:00 ~ 2021-06-11 18:00:00', '2021-06-11 09:30:00 ~ 2021-06-11 18:00:00', '2021-06-11 09:30:00 ~ 2021-06-11 18:00:00', '2021-06-11 09:30:00 ~ 2021-06-11 18:00:00', '2021-06-11 09:30:00 ~ 2021-06-11 18:00:00', '2021-06-11 09:30:00 ~ 2021-06-11 18:00:00']"
楓康超市太平店站,12b2101d-89d4-4590-a1a8-c989bdf1ebdf,台中市太平區樹德路67-1號(近樹德路/樹德路69巷路口),已啟用,24.151428,120.71048,24HR,24 ,"['2019-07-18 12:30:00 ~ 新增建置中', '2019-08-08 11:45:00 ~ 狀態變更為 100 (即將啟用)', '2019-08-16 12:15:00 ~ 啟用']","['2020-09-24 18:29:00 ~ 2020-09-25 18:29:00', '2020-06-24 10:00:00 ~ 2020-06-24 16:00:00', '2020-06-14 10:50:00 ~ 2020-06-16 10:50:00', '2020-06-14 10:50:00 ~ 2020-06-15 10:50:00', '2020-06-14 10:40:00 ~ 2020-06-15 10:40:00', '2020-02-12 09:03:00 ~ 2020-02-13 09:03:00', '2020-02-12 09:00:00 ~ 2020-02-12 15:00:00', '2020-01-22 14:40:00 ~ 2020-01-23 14:40:00', '2019-11-27 02:26:00 ~ 2019-11-28 02:26:00', '2019-11-07 02:33:00 ~ 2019-11-08 02:33:00']"
麗車坊內湖旗艦店站(多站),12c9fac7-a94a-4cee-a742-226929507e05,台北市內湖區舊宗路一段86號(近大潤發內湖一店),已啟用,25.059463,121.57958,24HR,46 ,"['2020-04-17 15:00:00 ~ 新增建置中狀態為 100 (即將啟用)', '2020-04-24 09:55:00 ~ 啟用', '2022-05-31 23:16:00 ~ 更改 GPS 位置']","['2021-08-03 13:26:00 ~ 2021-08-04 13:26:00', '2021-06-01 05:00:00 ~ 2021-06-01 18:00:00', '2021-06-01 05:00:00 ~ 2021-06-01 18:00:00', '2021-06-01 05:00:00 ~ 2021-06-01 18:00:00', '2021-06-01 05:00:00 ~ 2021-06-01 18:00:00', '2021-06-01 05:00:00 ~ 2021-06-01 18:00:00', '2021-06-01 05:00:00 ~ 2021-06-01 18:00:00', '2021-06-01 05:00:00 ~ 2021-06-01 18:00:00', '2021-06-01 05:00:00 ~ 2021-06-01 18:00:00', '2021-06-01 05:00:00 ~ 2021-06-01 18:00:00']"
HiLife 高市藍田店站(多站),12d19267-a517-4889-a6ae-97571d183641,高雄市楠梓區藍田路948號(近藍田路/大學二十五路),已啟用,22.72746,120.280502,24HR,40 ,"['2020-11-13 16:36:00 ~ 新增建置中', '2020-11-20 18:21:00 ~ 狀態變更為 100 (即將啟用)', '2020-12-04 12:01:00 ~ 啟用', '2022-05-31 23:16:00 ~ 更改 GPS 位置']","['2021-08-07 07:08:00 ~ 2021-08-08 07:08:00', '2021-08-07 07:08:00 ~ 2021-08-08 07:08:00', '2021-08-06 05:35:00 ~ 2021-08-07 05:35:00', '2021-07-30 03:14:00 ~ 2021-07-31 03:14:00', '2021-01-17 13:00:00 ~ 2021-01-18 18:00:00', '2021-01-17 13:00:00 ~ 2021-01-18 18:00:00', '2021-01-17 13:00:00 ~ 2021-01-18 18:00:00', '2021-01-17 13:00:00 ~ 2021-01-18 18:00:00', '2021-01-17 13:00:00 ~ 2021-01-18 18:00:00', '2021-01-17 13:00:00 ~ 2021-01-18 18:00:00']"
新竹南寮市場站,12d51c7e-0227-429b-9706-77bea9cc530f,新竹市北區東大路四段32號(近東大路四段與延平路三段路口),已啟用,24.841372,120.936306,24HR,34 ,"['2020-05-21 17:55:00 ~ 新增建置中狀態為 100 (即將啟用)', '2020-05-22 17:35:00 ~ 將狀態 100 改回建置中', '2020-06-01 10:45:00 ~ 狀態變更為 100 (即將啟用)', '2020-07-03 11:40:00 ~ 啟用', '2020-07-03 12:00:00 ~ 更改 GPS 位置']","['2021-01-27 14:00:00 ~ 2021-01-27 17:00:00', '2021-01-27 14:00:00 ~ 2021-01-27 17:00:00', '2020-12-22 13:10:00 ~ 2020-12-23 18:00:00', '2020-12-22 13:10:00 ~ 2020-12-23 18:00:00', '2020-12-22 13:10:00 ~ 2020-12-23 18:00:00', '2020-12-22 13:10:00 ~ 2020-12-23 18:00:00', '2020-12-22 13:10:00 ~ 2020-12-23 18:00:00', '2020-12-22 13:10:00 ~ 2020-12-23 18:00:00', '2020-12-22 13:10:00 ~ 2020-12-23 18:00:00', '2020-12-22 13:10:00 ~ 2020-12-23 18:00:00']"
中油信義加油站,131923fc-063c-41d6-a91b-6766e5a9729f,花蓮縣玉里鎮興國路一段26號(近文中二運動公園),已啟用,23.325211,121.323455,24HR,24 ,"['2020-11-24 18:51:00 ~ 新增建置中', '2020-12-14 18:36:00 ~ 狀態變更為 100 (即將啟用)', '2020-12-16 16:41:00 ~ 啟用', '2022-05-31 23:16:00 ~ 更改 GPS 位置']",[]
全家永康文化店站,132af6b0-20b3-4629-80d0-9ea44dcd52fe,台南市永康區文化路118號 (近文化路/永華路口),已啟用,23.016012,120.257934,24HR,34 ,"['2019-10-25 00:25:00 ~ 新增建置中', '2019-11-28 15:05:00 ~ 狀態變更為 100 (即將啟用)', '2019-12-19 16:00:00 ~ 啟用', '2022-05-31 23:16:00 ~ 更改 GPS 位置']","['2021-08-11 08:23:00 ~ 2021-08-12 08:23:00', '2021-08-11 01:47:00 ~ 2021-08-12 01:47:00', '2021-08-10 18:58:00 ~ 2021-08-11 18:58:00', '2021-07-28 10:27:00 ~ 2021-07-29 10:27:00', '2021-07-28 02:44:00 ~ 2021-07-29 02:44:00', '2021-07-28 02:44:00 ~ 2021-07-29 02:44:00', '2020-10-05 17:30:00 ~ 2020-10-07 17:30:00', '2020-10-05 17:30:00 ~ 2020-10-07 17:30:00', '2020-10-05 17:30:00 ~ 2020-10-07 17:30:00', '2020-10-05 17:30:00 ~ 2020-10-07 17:30:00']"
